,school_name,level_of_schooling,school_gender,suburb,latitude,longitude
0,Abbotsford Public School,Primary School,Coed,Abbotsford ,-33.8527,151.1312
1,Aberdeen Public School,Primary School,Coed,Aberdeen,-32.1661,150.8881
2,Abermain Public School,Primary School,Coed,Abermain ,-32.8089,151.4265
3,Adaminaby Public School,Primary School,Coed,Adaminaby,-35.9933,148.7767
4,Adamstown Public School,Primary School,Coed,Adamstown ,-32.9322,151.731
5,Adelong Public School,Primary School,Coed,Adelong ,-35.3123,148.0628
6,Albion Park Public School,Primary School,Coed,Albion Park ,-34.5703,150.7726
7,Timbumburi Public School,Primary School,Coed,Timbumburi ,-31.2038,150.9156
8,Albury Public School,Primary School,Coed,Albury ,-36.0825,146.9193
9,Albury West Public School,Primary School,Coed,Albury ,-36.0778,146.8956
10,Alma Public School,Primary School,Coed,Broken Hill ,-31.9822,141.4624
11,Alstonville Public School,Primary School,Coed,Alstonville ,-28.8385,153.4382
12,Anna Bay Public School,Primary School,Coed,Anna Bay ,-32.7764,152.0899
13,Annandale Public School,Primary School,Coed,Annandale ,-33.8858,151.1696
14,Annandale North Public School,Primary School,Coed,Annandale ,-33.8779,151.1718
15,Appin Public School,Primary School,Coed,Appin,-34.1984,150.7877
16,Arcadia Public School,Primary School,Coed,Arcadia,-33.6235,151.051
17,Ardlethan Central School,Central/Community School,Coed,Ardlethan ,-34.3541,146.9006
18,Ariah Park Central School,Central/Community School,Coed,Ariah Park ,-34.3469,147.218
19,Armidale City Public School,Primary School,Coed,Armidale ,-30.5195,151.6641
20,Drummond Memorial Public School,Primary School,Coed,Armidale,-30.5115,151.6507
21,Artarmon Public School,Primary School,Coed,Artarmon ,-33.8112,151.186
22,Ashbury Public School,Primary School,Coed,Ashbury,-33.8988,151.1194
23,Ashfield Public School,Primary School,Coed,Ashfield ,-33.8897,151.1282
24,Ashford Central School,Central/Community School,Coed,Ashford ,-29.3213,151.0946
25,Asquith Public School,Primary School,Coed,Asquith,-33.6857,151.1122
26,Attunga Public School,Primary School,Coed,Attunga ,-30.9304,150.8466
27,Auburn North Public School,Primary School,Coed,Auburn ,-33.8417,151.0386
28,Auburn West Public School,Primary School,Coed,Auburn ,-33.8609,151.0198
29,Austinmer Public School,Primary School,Coed,Austinmer ,-34.3054,150.935
30,Austral Public School,Primary School,Coed,Austral,-33.9345,150.8126
31,Avoca Public School,Primary School,Coed,Avoca,-34.6127,150.4798
32,Avoca Beach Public School,Primary School,Coed,Avoca Beach,-33.4712,151.4307
33,Awaba Public School,Primary School,Coed,Awaba,-33.0106,151.5381
34,Colo Vale Public School,Primary School,Coed,Colo Vale ,-34.4013,150.4762
35,Bald Blair Public School,Primary School,Coed,Guyra ,-30.2299,151.785
36,Seaforth Public School,Primary School,Coed,Seaforth ,-33.7933,151.2512
37,Balgownie Public School,Primary School,Coed,Balgownie ,-34.387,150.8721
38,Ballimore Public School,Primary School,Coed,Ballimore ,-32.1936,148.8996
39,Ballina Public School,Primary School,Coed,Ballina ,-28.8697,153.5637
40,Balranald Central School,Central/Community School,Coed,Balranald,-34.6356,143.5648
41,Bangalow Public School,Primary School,Coed,Bangalow ,-28.6855,153.5257
42,Banksmeadow Public School,Primary School,Coed,Botany ,-33.9537,151.2066
43,Greenacre Public School,Primary School,Coed,Greenacre,-33.9112,151.0576
44,Bankstown North Public School,Primary School,Coed,Bankstown ,-33.9049,151.038
45,Banora Point Public School,Primary School,Coed,Banora Point ,-28.2224,153.5437
46,Baradine Central School,Central/Community School,Coed,Baradine,-30.9507,149.0702
47,Barellan Central School,Central/Community School,Coed,Barellan ,-34.2878,146.5719
48,Bargo Public School,Primary School,Coed,Bargo ,-34.2929,150.5827
49,Barham Public School,Primary School,Coed,Barham,-35.6269,144.128
50,Barkers Vale Public School,Primary School,Coed,Wadeville ,-28.549,153.1493
51,Barmedman Public School,Primary School,Coed,Barmedman ,-34.1483,147.3851
52,Barnsley Public School,Primary School,Coed,Barnsley ,-32.9331,151.5946
53,Barooga Public School,Primary School,Coed,Barooga ,-35.913,145.696
54,Barraba Central School,Central/Community School,Coed,Barraba ,-30.3824,150.5995
55,Barrington Public School,Primary School,Coed,Barrington ,-31.9712,151.9111
56,Baryulgil Public School,Primary School,Coed,Baryulgil ,-29.2235,152.6056
57,Bass Hill Public School,Primary School,Coed,Bass Hill ,-33.9059,151.0058
58,Batemans Bay Public School,Primary School,Coed,Surfside,-35.7001,150.1884
59,Bathurst Public School,Primary School,Coed,Bathurst ,-33.4209,149.5706
60,Batlow Technology School,Central/Community School,Coed,Batlow ,-35.523,148.1465
61,Beckom Public School,Primary School,Coed,Beckom ,-34.3272,146.9629
62,Bedgerebong Public School,Primary School,Coed,Bedgerebong ,-33.3614,147.6793
63,Beechwood Public School,Primary School,Coed,Wauchope ,-31.4355,152.6809
64,Beecroft Public School,Primary School,Coed,Beecroft ,-33.7521,151.0646
65,Beelbangera Public School,Primary School,Coed,Beelbangera ,-34.2528,146.1011
66,Bega Valley Public School,Primary School,Coed,Bega ,-36.6705,149.8391
67,Bellata Public School,Primary School,Coed,Bellata ,-29.9187,149.7962
68,Bellbird Public School,Primary School,Coed,Bellbird ,-32.8594,151.3167
69,Bellbrook Public School,Primary School,Coed,Bellbrook,-30.8191,152.5087
70,Bellevue Hill Public School,Primary School,Coed,Bellevue Hill ,-33.887,151.2598
71,Bellingen Public School,Primary School,Coed,Bellingen ,-30.4535,152.8919
72,Belltrees Public School,Primary School,Coed,Belltrees ,-31.9888,151.1295
73,Belmont Public School,Primary School,Coed,Belmont ,-33.0301,151.6622
74,Belmore North Public School,Primary School,Coed,Belmore ,-33.9099,151.0849
75,Belmore South Public School,Primary School,Coed,Belmore ,-33.9257,151.092
76,Bemboka Public School,Primary School,Coed,Bemboka ,-36.6313,149.5711
77,Bendemeer Public School,Primary School,Coed,Bendemeer ,-30.887,151.151
78,Ben Lomond Public School,Primary School,Coed,Ben Lomond ,-30.017,151.6613
79,Ben Venue Public School,Primary School,Coed,Armidale ,-30.5029,151.6746
80,Berala Public School,Primary School,Coed,Berala,-33.8697,151.0282
81,Beresfield Public School,Primary School,Coed,Beresfield,-32.804,151.6549
82,Berkeley Public School,Primary School,Coed,Berkeley ,-34.4802,150.8565
83,Berkeley Vale Public School,Primary School,Coed,Berkeley Vale ,-33.3505,151.4359
84,Bermagui Public School,Primary School,Coed,Bermagui ,-36.4208,150.0636
85,Berowra Public School,Primary School,Coed,Berowra ,-33.6185,151.149
86,Berridale Public School,Primary School,Coed,Berridale ,-36.3714,148.8272
87,Berrigan Public School,Primary School,Coed,Berrigan ,-35.6597,145.8157
88,Berrima Public School,Primary School,Coed,Berrima ,-34.4859,150.3408
89,Berry Public School,Primary School,Coed,Berry ,-34.7783,150.6897
90,Beverly Hills Public School,Primary School,Coed,Beverly Hills ,-33.9534,151.0852
91,Bexhill Public School,Primary School,Coed,Bexhill,-28.766,153.3458
92,Bigga Public School,Primary School,Coed,Bigga ,-34.0847,149.1446
93,Bilambil Public School,Primary School,Coed,Bilambil ,-28.2237,153.4684
94,Ocean Shores Public School,Primary School,Coed,Ocean Shores,-28.4912,153.5403
95,Bilpin Public School,Primary School,Coed,Bilpin ,-33.4973,150.5168
96,Binalong Public School,Primary School,Coed,Binalong,-34.6701,148.6257
97,Binda Public School,Primary School,Coed,Binda ,-34.3315,149.3681
98,Bingara Central School,Central/Community School,Coed,Bingara ,-29.8667,150.5672
99,Binnaway Central School,Central/Community School,Coed,Binnaway,-31.5528,149.375
100,Binya Public School,Primary School,Coed,Binya,-34.2287,146.353
101,Birchgrove Public School,Primary School,Coed,Balmain ,-33.853,151.177
102,Blackheath Public School,Primary School,Coed,Blackheath ,-33.6393,150.2858
103,Black Hill Public School,Primary School,Coed,Black Hill ,-32.8385,151.6171
104,Black Mountain Public School,Primary School,Coed,Black Mountain ,-30.3085,151.6577
105,Blackville Public School,Primary School,Coed,Blackville ,-31.6404,150.2375
106,Blakebrook Public School,Primary School,Coed,Blakebrook ,-28.7634,153.23
107,Blakehurst Public School,Primary School,Coed,Blakehurst ,-33.983,151.1158
108,Blandford Public School,Primary School,Coed,Blandford ,-31.7786,150.8927
109,Blaxcell Street Public School,Primary School,Coed,Granville,-33.8581,151.0061
110,Blaxland Public School,Primary School,Coed,Blaxland,-33.7371,150.6035
111,Blayney Public School,Primary School,Coed,Blayney ,-33.529,149.2516
112,Blighty Public School,Primary School,Coed,Blighty ,-35.5801,145.3493
113,Boambee Public School,Primary School,Coed,Boambee,-30.3341,153.077
114,Bobin Public School,Primary School,Coed,Bobin ,-31.7127,152.2839
115,Bobs Farm Public School,Primary School,Coed,Bobs Farm,-32.7668,152.0109
116,Bodalla Public School,Primary School,Coed,Bodalla ,-36.0994,150.0539
117,Bogan Gate Public School,Primary School,Coed,Bogan Gate,-33.105,147.7979
118,Boggabilla Central School,Central/Community School,Coed,Boggabilla ,-28.6166,150.3616
119,Boggabri Public School,Primary School,Coed,Boggabri ,-30.7057,150.0431
120,Bolwarra Public School,Primary School,Coed,Bolwarra ,-32.707,151.573
121,Bomaderry Public School,Primary School,Coed,Bomaderry ,-34.8474,150.6083
122,Bombala Public School,Primary School,Coed,Bombala,-36.919,149.2338
123,Bonalbo Central School,Central/Community School,Coed,Bonalbo,-28.7355,152.624
124,Bondi Beach Public School,Primary School,Coed,Bondi Beach ,-33.8883,151.2768
125,Bongongo Public School,Primary School,Coed,Adjungbilly,-35.0846,148.3995
126,Bonshaw Public School,Primary School,Coed,Bonshaw ,-29.0464,151.2781
127,Bonville Public School,Primary School,Coed,Bonville ,-30.3798,153.0323
128,Boolaroo Public School,Primary School,Coed,Boolaroo ,-32.9512,151.6228
129,Booligal Public School,Primary School,Coed,Booligal ,-33.867,144.8864
130,Boomi Public School,Primary School,Coed,Boomi ,-28.7241,149.5773
131,Booral Public School,Primary School,Coed,Booral ,-32.4714,151.9607
132,Boorowa Central School,Central/Community School,Coed,Boorowa ,-34.4367,148.7261
133,Boree Creek Public School,Primary School,Coed,Boree Creek ,-35.1059,146.6063
134,Boronia Park Public School,Primary School,Coed,Hunters Hill,-33.8214,151.1356
135,Bossley Park Public School,Primary School,Coed,Bossley Park ,-33.8585,150.8831
136,Botany Public School,Primary School,Coed,Botany ,-33.9432,151.1947
137,Bourke Public School,Primary School,Coed,Bourke,-30.0935,145.9497
138,Norfolk Island Central School,Other School,Coed,Norfolk Island,-29.0415,167.9655
139,Bowning Public School,Primary School,Coed,Bowning ,-34.7694,148.8115
140,Bowral Public School,Primary School,Coed,Bowral ,-34.4812,150.4192
141,Bowraville Central School,Central/Community School,Coed,Bowraville,-30.6453,152.8539
142,Braidwood Central School,Central/Community School,Coed,Braidwood ,-35.4406,149.7989
143,Branxton Public School,Primary School,Coed,Branxton,-32.6594,151.3507
144,Breadalbane Public School,Primary School,Coed,Breadalbane,-34.7905,149.4876
145,Colo Heights Public School,Primary School,Coed,Colo Heights,-33.373,150.7398
146,Bredbo Public School,Primary School,Coed,Bredbo ,-35.954,149.148
147,Brewarrina Central School,Central/Community School,Coed,Brewarrina,-29.9637,146.8591
148,Bribbaree Public School,Primary School,Coed,Bribbaree ,-34.1204,147.8747
149,Brighton-Le-Sands Public School,Primary School,Coed,Brighton-Le-Sands,-33.9624,151.1489
150,Bringelly Public School,Primary School,Coed,Bringelly,-33.9379,150.7303
151,Broadwater Public School,Primary School,Coed,Broadwater ,-29.0028,153.4373
152,Brocklesby Public School,Primary School,Coed,Brocklesby,-35.8239,146.678
153,Broke Public School,Primary School,Coed,Broke ,-32.745,151.1043
154,Broken Hill Public School,Primary School,Coed,Broken Hill ,-31.9561,141.4565
155,Broken Hill North Public School,Primary School,Coed,Broken Hill ,-31.9445,141.4715
156,Bronte Public School,Primary School,Coed,Bronte ,-33.9006,151.262
157,Brooklyn Public School,Primary School,Coed,Brooklyn ,-33.5484,151.215
158,Brookvale Public School,Primary School,Coed,Brookvale ,-33.7617,151.2708
159,Brungle Public School,Primary School,Coed,Brungle ,-35.1568,148.2336
160,Brunswick Heads Public School,Primary School,Coed,Brunswick Heads ,-28.5413,153.5508
161,Bulahdelah Central School,Central/Community School,Coed,Bulahdelah ,-32.4134,152.2119
162,Bulli Public School,Primary School,Coed,Bulli ,-34.327,150.9127
163,Bundanoon Public School,Primary School,Coed,Bundanoon ,-34.6579,150.3004
164,Bundarra Central School,Central/Community School,Coed,Bundarra,-30.1684,151.0776
165,Bungendore Public School,Primary School,Coed,Bungendore ,-35.2556,149.4446
166,Bungwahl Public School,Primary School,Coed,Bungwahl,-32.3891,152.4486
167,Bunnaloo Public School,Primary School,Coed,Bunnaloo,-35.7864,144.5979
168,Burke Ward Public School,Primary School,Coed,Broken Hill ,-31.9604,141.4411
169,Burnside Public School,Primary School,Coed,North Parramatta ,-33.7926,151.0183
170,Burraga Public School,Primary School,Coed,Burraga,-33.9493,149.5279
171,Burrawang Public School,Primary School,Coed,Burrawang ,-34.5922,150.5172
172,Burren Junction Public School,Primary School,Coed,Burren Junction ,-30.1027,148.9647
173,Burringbar Public School,Primary School,Coed,Burringbar ,-28.4366,153.4667
174,Burrumbuttock Public School,Primary School,Coed,Burrumbuttock ,-35.8375,146.8
175,Burwood Public School,Primary School,Coed,Burwood,-33.8768,151.099
176,Buxton Public School,Primary School,Coed,Buxton ,-34.247,150.5448
177,Byron Bay Public School,Primary School,Coed,Byron Bay ,-28.6474,153.6148
178,Cabbage Tree Island Public School,Primary School,Coed,Cabbage Tree Island,-28.9837,153.4578
179,Cabramatta Public School,Primary School,Coed,Cabramatta ,-33.8958,150.9426
180,Cambewarra Public School,Primary School,Coed,Cambewarra ,-34.8215,150.556
181,Camden Public School,Primary School,Coed,Camden ,-34.052,150.6932
182,Camdenville Public School,Primary School,Coed,Newtown ,-33.9061,151.1757
183,Cammeray Public School,Primary School,Coed,Cammeray ,-33.8204,151.2115
184,Campbelltown Public School,Primary School,Coed,Campbelltown ,-34.0701,150.8156
185,Campsie Public School,Primary School,Coed,Campsie,-33.9119,151.1048
186,Candelo Public School,Primary School,Coed,Candelo ,-36.7684,149.6957
187,Caniaba Public School,Primary School,Coed,Lismore ,-28.8308,153.2313
188,Canley Vale Public School,Primary School,Coed,Canley Vale ,-33.8868,150.9376
189,Canobolas Public School,Primary School,Coed,Orange ,-33.3059,149.0462
190,Canterbury Public School,Primary School,Coed,Canterbury ,-33.9088,151.1223
191,Brisbania Public School,Primary School,Coed,Saratoga,-33.4788,151.3573
192,Uranquinty Public School,Primary School,Coed,Uranquinty,-35.1888,147.2495
193,Capertee Public School,Primary School,Coed,Capertee ,-33.1471,149.9859
194,Captains Flat Public School,Primary School,Coed,Captains Flat,-35.5872,149.4501
195,Caragabal Public School,Primary School,Coed,Caragabal ,-33.8453,147.7444
196,Carcoar Public School,Primary School,Coed,Carcoar ,-33.6123,149.1424
197,Cardiff Public School,Primary School,Coed,Cardiff ,-32.9458,151.6578
198,Cargo Public School,Primary School,Coed,Cargo ,-33.4276,148.8077
199,Carinda Public School,Primary School,Coed,Carinda ,-30.4619,147.6876
200,Caringbah Public School,Primary School,Coed,Caringbah ,-34.0534,151.123
201,Carlton Public School,Primary School,Coed,Bexley ,-33.9635,151.1225
202,Carlton South Public School,Primary School,Coed,Carlton ,-33.973,151.1283
203,Carool Public School,Primary School,Coed,Carool,-28.23,153.4293
204,Carrathool Public School,Primary School,Coed,Carrathool,-34.4092,145.4316
205,Carrington Public School,Primary School,Coed,Carrington ,-32.9124,151.7653
206,Carroll Public School,Primary School,Coed,Carroll ,-30.9861,150.4471
207,Casino Public School,Primary School,Coed,Casino ,-28.8674,153.048
208,Dungay Public School,Primary School,Coed,Dungay,-28.2897,153.3824
209,Cassilis Public School,Primary School,Coed,Cassilis,-32.0046,149.9781
210,Castle Hill Public School,Primary School,Coed,Castle Hill ,-33.7279,151.0047
211,Cattai Public School,Primary School,Coed,Cattai ,-33.5588,150.9069
212,Cawdor Public School,Primary School,Coed,Camden ,-34.1097,150.6737
213,Cessnock Public School,Primary School,Coed,Cessnock ,-32.8404,151.3638
214,Cessnock East Public School,Primary School,Coed,Cessnock ,-32.8276,151.3698
215,Cessnock West Public School,Primary School,Coed,Cessnock ,-32.8384,151.3449
216,Chandler Public School,Primary School,Coed,Wollomombi,-30.5186,152.0536
217,The Channon Public School,Primary School,Coed,The Channon ,-28.6751,153.2803
218,Charlestown Public School,Primary School,Coed,Charlestown ,-32.9655,151.6975
219,Pacific Palms Public School,Primary School,Coed,Boomerang Beach ,-32.341,152.5393
220,Chatsworth Island Public School,Primary School,Coed,Chatsworth,-29.388,153.2316
221,Chillingham Public School,Primary School,Coed,Chillingham ,-28.3119,153.2756
222,Chipping Norton Public School,Primary School,Coed,Chipping Norton ,-33.9091,150.9608
223,Clarence Town Public School,Primary School,Coed,Clarence Town ,-32.5887,151.7772
224,Clemton Park Public School,Primary School,Coed,Earlwood,-33.9297,151.1084
225,Clovelly Public School,Primary School,Coed,Waverley ,-33.9074,151.2603
226,Clunes Public School,Primary School,Coed,Clunes ,-28.7248,153.4089
227,Cobar Public School,Primary School,Coed,Cobar ,-31.5022,145.8366
228,Cobargo Public School,Primary School,Coed,Cobargo,-36.3869,149.8828
229,Cobbitty Public School,Primary School,Coed,Cobbitty ,-34.0159,150.6859
230,Coffee Camp Public School,Primary School,Coed,Coffee Camp ,-28.6627,153.2206
231,Coffs Harbour Public School,Primary School,Coed,Coffs Harbour,-30.302,153.1204
232,Coledale Public School,Primary School,Coed,Coledale ,-34.2895,150.9474
233,Collarenebri Central School,Central/Community School,Coed,Collarenebri,-29.5438,148.5781
234,Collector Public School,Primary School,Coed,Collector,-34.9142,149.4332
235,Collingullie Public School,Primary School,Coed,Collingullie ,-35.0902,147.1272
236,Collins Creek Public School,Primary School,Coed,Collins Creek ,-28.4893,153.0226
237,Colyton Public School,Primary School,Coed,Mount Druitt ,-33.7772,150.8132
238,Comboyne Public School,Primary School,Coed,Comboyne ,-31.6053,152.4727
239,Comleroy Road Public School,Primary School,Coed,Kurrajong,-33.5065,150.6976
240,Como Public School,Primary School,Coed,Como ,-34.0018,151.0691
241,Conargo Public School,Primary School,Coed,Conargo ,-35.3053,145.1789
242,Concord Public School,Primary School,Coed,Concord ,-33.8632,151.1069
243,Concord West Public School,Primary School,Coed,Concord West ,-33.8396,151.0873
244,Condobolin Public School,Primary School,Coed,Condobolin,-33.0855,147.1491
245,Condong Public School,Primary School,Coed,Condong ,-28.3097,153.4344
246,Coniston Public School,Primary School,Coed,Coniston ,-34.439,150.8874
247,Connells Point Public School,Primary School,Coed,South Hurstville,-33.9847,151.1003
248,Cooerwull Public School,Primary School,Coed,Lithgow ,-33.4841,150.1421
249,Coogee Public School,Primary School,Coed,Coogee ,-33.9208,151.2498
250,Coolah Central School,Central/Community School,Coed,Coolah ,-31.821,149.7236
251,Coolamon Central School,Central/Community School,Coed,Coolamon ,-34.8119,147.2014
252,Shoalhaven Heads Public School,Primary School,Coed,Shoalhaven Heads,-34.8532,150.7401
253,Coolongolook Public School,Primary School,Coed,Coolongolook ,-32.2228,152.3188
254,Cooma Public School,Primary School,Coed,Cooma ,-36.2375,149.125
255,Coonabarabran Public School,Primary School,Coed,Coonabarabran ,-31.28,149.2821
256,Coonamble Public School,Primary School,Coed,Coonamble,-30.9584,148.387
257,Coopernook Public School,Primary School,Coed,Coopernook ,-31.8275,152.6079
258,Coorabell Public School,Primary School,Coed,Coorabell ,-28.6257,153.4875
259,Cooranbong Public School,Primary School,Coed,Cooranbong ,-33.0805,151.4418
260,Cootamundra Public School,Primary School,Coed,Cootamundra,-34.6389,148.0268
261,Copmanhurst Public School,Primary School,Coed,Copmanhurst ,-29.5847,152.7755
262,Coraki Public School,Primary School,Coed,Coraki ,-28.9926,153.2826
263,Coramba Public School,Primary School,Coed,Coramba ,-30.2216,153.0115
264,Corindi Public School,Primary School,Coed,Corindi Beach ,-30.0215,153.1942
265,Corndale Public School,Primary School,Coed,Corndale ,-28.7132,153.3625
266,Corowa Public School,Primary School,Coed,Corowa ,-35.9925,146.3949
267,Corowa South Public School,Primary School,Coed,Corowa ,-36.021,146.3762
268,Corrimal Public School,Primary School,Coed,Corrimal,-34.3674,150.899
269,Coutts Crossing Public School,Primary School,Coed,Coutts Crossing ,-29.8321,152.8895
270,Cowan Public School,Primary School,Coed,Cowan ,-33.5888,151.1688
271,Cowper Public School,Primary School,Coed,Cowper ,-29.5696,153.0777
272,Cowra Public School,Primary School,Coed,Cowra ,-33.836,148.6899
273,Crabbes Creek Public School,Primary School,Coed,Crabbes Creek ,-28.456,153.4966
274,Crescent Head Public School,Primary School,Coed,Crescent Head ,-31.1881,152.9704
275,Cronulla Public School,Primary School,Coed,Cronulla ,-34.0541,151.1477
276,Crookwell Public School,Primary School,Coed,Crookwell ,-34.4599,149.4698
277,Crossmaglen Public School,Primary School,Coed,Crossmaglen,-30.3659,152.9816
278,Buronga Public School,Primary School,Coed,Buronga ,-34.1695,142.1813
279,Crystal Creek Public School,Primary School,Coed,Crystal Creek,-28.3121,153.326
280,Cudal Public School,Primary School,Coed,Cudal ,-33.2871,148.7403
281,Cudgen Public School,Primary School,Coed,Cudgen ,-28.2626,153.5554
282,Culcairn Public School,Primary School,Coed,Culcairn ,-35.6683,147.04
283,Cullen Bullen Public School,Primary School,Coed,Cullen Bullen ,-33.2999,150.0323
284,Cumnock Public School,Primary School,Coed,Cumnock,-32.9313,148.7495
285,Cundletown Public School,Primary School,Coed,Cundletown ,-31.8997,152.522
286,Curlewis Public School,Primary School,Coed,Curlewis ,-31.1171,150.2633
287,Currabubula Public School,Primary School,Coed,Currabubula ,-31.2628,150.7357
288,Dalgety Public School,Primary School,Coed,Dalgety,-36.5027,148.8367
289,Dalton Public School,Primary School,Coed,Dalton ,-34.7204,149.1788
290,Dapto Public School,Primary School,Coed,Horsley,-34.4961,150.797
291,Dareton Public School,Primary School,Coed,Dareton ,-34.0911,142.0404
292,Darlington Public School,Primary School,Coed,Chippendale ,-33.8926,151.1894
293,Darlington Point Public School,Primary School,Coed,Darlington Point ,-34.5728,145.9939
294,Leeville Public School,Primary School,Coed,Leeville ,-28.9308,153.0035
295,Deepwater Public School,Primary School,Coed,Deepwater ,-29.4429,151.8481
296,Dee Why Public School,Primary School,Coed,Dee Why ,-33.749,151.2852
297,Delegate Public School,Primary School,Coed,Delegate ,-37.0417,148.9372
298,Delungra Public School,Primary School,Coed,Delungra ,-29.6509,150.831
299,Denman Public School,Primary School,Coed,Denman ,-32.3857,150.686
300,Doonside Public School,Primary School,Coed,Doonside,-33.7646,150.8705
301,Dora Creek Public School,Primary School,Coed,Dora Creek ,-33.079,151.4992
302,Double Bay Public School,Primary School,Coed,Double Bay ,-33.8749,151.2409
303,Doubtful Creek Public School,Primary School,Coed,Doubtful Creek,-28.7248,152.876
304,Douglas Park Public School,Primary School,Coed,Douglas Park ,-34.1795,150.713
305,Drake Public School,Primary School,Coed,Drake,-28.9288,152.3741
306,Drummoyne Public School,Primary School,Coed,Drummoyne ,-33.8561,151.153
307,Dubbo Public School,Primary School,Coed,Dubbo ,-32.2487,148.6054
308,Dubbo North Public School,Primary School,Coed,Dubbo ,-32.2417,148.6158
309,Dudley Public School,Primary School,Coed,Dudley ,-32.9894,151.7168
310,Lismore Public School,Primary School,Coed,Lismore ,-28.8143,153.2909
311,Dundurrabin Public School,Primary School,Coed,Dundurrabin,-30.1895,152.5426
312,Dunedoo Central School,Central/Community School,Coed,Dunedoo ,-32.0183,149.3922
313,Dungog Public School,Primary School,Coed,Dungog ,-32.4052,151.7577
314,Dungowan Public School,Primary School,Coed,Dungowan,-31.2201,151.1327
315,Dunoon Public School,Primary School,Coed,Dunoon ,-28.6867,153.3155
316,Dural Public School,Primary School,Coed,Dural ,-33.6861,151.0264
317,Duranbah Public School,Primary School,Coed,Duranbah ,-28.2891,153.5169
318,Duri Public School,Primary School,Coed,Duri ,-31.2214,150.8299
319,Durrumbul Public School,Primary School,Coed,Durrumbul ,-28.5233,153.4446
320,Earlwood Public School,Primary School,Coed,Earlwood ,-33.929,151.1224
321,Eastern Creek Public School,Primary School,Coed,Eastern Creek,-33.787,150.8526
322,Panania Public School,Primary School,Coed,Panania,-33.966,150.9995
323,Dubbo South Public School,Primary School,Coed,Dubbo ,-32.2631,148.6098
324,Ebenezer Public School,Primary School,Coed,Ebenezer ,-33.5309,150.8768
325,Ebor Public School,Primary School,Coed,Ebor ,-30.4033,152.3499
326,Eden Public School,Primary School,Coed,Eden ,-37.0633,149.9067
327,Congewai Public School,Primary School,Coed,Congewai,-32.9587,151.2739
328,Eglinton Public School,Primary School,Coed,Eglinton ,-33.3775,149.5393
329,Elands Public School,Primary School,Coed,Elands ,-31.6194,152.2923
330,Ellalong Public School,Primary School,Coed,Ellalong,-32.9147,151.312
331,Ellerston Public School,Primary School,Coed,Ellerston,-31.8177,151.3044
332,Eltham Public School,Primary School,Coed,Eltham ,-28.7637,153.4085
333,Emmaville Central School,Central/Community School,Coed,Emmaville ,-29.4462,151.6017
334,Empire Bay Public School,Primary School,Coed,Empire Bay ,-33.5043,151.3629
335,Empire Vale Public School,Primary School,Coed,Empire Vale ,-28.9151,153.5061
336,Emu Plains Public School,Primary School,Coed,Emu Plains ,-33.7556,150.6577
337,Enfield Public School,Primary School,Coed,Enfield ,-33.8886,151.0945
338,Engadine Public School,Primary School,Coed,Engadine ,-34.0634,151.0124
339,The Entrance Public School,Primary School,Coed,The Entrance ,-33.3467,151.493
340,Epping Public School,Primary School,Coed,Epping,-33.7707,151.0879
341,Epping West Public School,Primary School,Coed,Epping ,-33.7728,151.0681
342,Erina Heights Public School,Primary School,Coed,Erina Heights ,-33.428,151.4136
343,Woodport Public School,Primary School,Coed,Erina ,-33.4393,151.3785
344,Ermington Public School,Primary School,Coed,West Ryde ,-33.8047,151.0716
345,Ettalong Public School,Primary School,Coed,Ettalong Beach ,-33.5135,151.3327
346,Euabalong West Public School,Primary School,Coed,Euabalong West ,-33.0558,146.3971
347,Euchareena Public School,Primary School,Coed,Euchareena ,-32.9372,149.0915
348,Eugowra Public School,Primary School,Coed,Eugowra ,-33.4231,148.3693
349,Eumungerie Public School,Primary School,Coed,Eumungerie ,-31.9512,148.6211
350,Eungai Public School,Primary School,Coed,Eungai Creek ,-30.8321,152.8743
351,Eureka Public School,Primary School,Coed,Eureka ,-28.6877,153.4392
352,Eurongilly Public School,Primary School,Coed,Eurongilly,-34.9102,147.781
353,Euston Public School,Primary School,Coed,Euston ,-34.5756,142.7442
354,Evans River Community School,Central/Community School,Coed,Evans Head,-29.1135,153.4247
355,Excelsior Public School,Primary School,Coed,Castle Hill ,-33.7404,150.9904
356,Exeter Public School,Primary School,Coed,Exeter ,-34.6161,150.3218
357,Fairfax Public School,Primary School,Coed,Maules Creek,-30.4934,150.1313
358,Fairfield Public School,Primary School,Coed,Fairfield ,-33.8668,150.9554
359,Fairfield West Public School,Primary School,Coed,Fairfield West ,-33.868,150.9248
360,Fairy Meadow Public School,Primary School,Coed,Fairy Meadow ,-34.3905,150.8923
361,Falls Creek Public School,Primary School,Coed,Falls Creek ,-34.9654,150.5934
362,Fassifern Public School,Primary School,Coed,Fassifern,-32.9834,151.5828
363,Fingal Head Public School,Primary School,Coed,Fingal Head ,-28.1968,153.5651
364,Five Dock Public School,Primary School,Coed,Five Dock ,-33.8669,151.1273
365,Lord Howe Island Central School,Central/Community School,Coed,Lord Howe Island ,-31.5301,159.069
366,Forbes Public School,Primary School,Coed,Forbes,-33.3879,148.0064
367,Forest Hill Public School,Primary School,Coed,Forest Hill,-35.1479,147.467
368,Forest Lodge Public School,Primary School,Coed,Forest Lodge ,-33.8822,151.1816
369,Forster Public School,Primary School,Coed,Forster ,-32.1825,152.5242
370,Fort Street Public School,Primary School,Coed,Sydney ,-33.8604,151.2049
371,Frederickton Public School,Primary School,Coed,Frederickton ,-31.0336,152.8793
372,Freemans Reach Public School,Primary School,Coed,Freemans Reach,-33.5587,150.7993
373,Frenchs Forest Public School,Primary School,Coed,Frenchs Forest ,-33.7515,151.2247
374,Galston Public School,Primary School,Coed,Galston ,-33.6482,151.0452
375,Ganmain Public School,Primary School,Coed,Ganmain ,-34.7969,147.04
376,Garah Public School,Primary School,Coed,Garah ,-29.0772,149.6349
377,Gerogery Public School,Primary School,Coed,Gerogery ,-35.8321,146.9981
378,Gerringong Public School,Primary School,Coed,Gerringong ,-34.7494,150.8215
379,Geurie Public School,Primary School,Coed,Geurie,-32.3961,148.8295
380,Sandy Hollow Public School,Primary School,Coed,Sandy Hollow,-32.3365,150.569
381,Gilgai Public School,Primary School,Coed,Gilgai ,-29.8527,151.1156
382,Gilgandra Public School,Primary School,Coed,Gilgandra ,-31.708,148.6646
383,Gillieston Public School,Primary School,Coed,Gillieston Heights ,-32.7523,151.5307
384,Girilambone Public School,Primary School,Coed,Girilambone ,-31.2497,146.9088
385,Girraween Public School,Primary School,Coed,Girraween ,-33.7997,150.9504
386,Gladesville Public School,Primary School,Coed,Gladesville ,-33.833,151.1257
387,Gladstone Public School,Primary School,Coed,Gladstone ,-31.0265,152.9465
388,Windang Public School,Primary School,Coed,Windang ,-34.5315,150.866
389,Glenbrook Public School,Primary School,Coed,Glenbrook ,-33.766,150.6213
390,Glenfield Public School,Primary School,Coed,Glenfield ,-33.971,150.8966
391,Glenhaven Public School,Primary School,Coed,Glenhaven ,-33.7008,151.0029
392,Glen Innes Public School,Primary School,Coed,Glen Innes ,-29.7351,151.741
393,Glenmore Road Public School,Primary School,Coed,Paddington ,-33.8814,151.2302
394,Glenorie Public School,Primary School,Coed,Glenorie ,-33.5994,151.0081
395,Glenquarry Public School,Primary School,Coed,Glenquarry ,-34.5223,150.4835
396,Glenreagh Public School,Primary School,Coed,Glenreagh ,-30.0536,152.9763
397,Glen William Public School,Primary School,Coed,Clarence Town ,-32.5254,151.7979
398,Glossodia Public School,Primary School,Coed,Glossodia ,-33.5305,150.7655
399,Gol Gol Public School,Primary School,Coed,Gol Gol ,-34.1796,142.2227
400,Goodooga Central School,Central/Community School,Coed,Goodooga,-29.1159,147.4555
401,Goolgowi Public School,Primary School,Coed,Goolgowi ,-33.9757,145.7092
402,Goolma Public School,Primary School,Coed,Goolma ,-32.3688,149.269
403,Goolmangar Public School,Primary School,Coed,Goolmangar ,-28.7097,153.2317
404,Gooloogong Public School,Primary School,Coed,Gooloogong ,-33.6171,148.4364
405,Goonellabah Public School,Primary School,Coed,Goonellabah,-28.8183,153.3223
406,Goonengerry Public School,Primary School,Coed,Goonengerry,-28.6095,153.4398
407,Gosford Public School,Primary School,Coed,West Gosford,-33.4207,151.3345
408,Goulburn Public School,Primary School,Coed,Goulburn ,-34.7506,149.7178
409,Goulburn East Public School,Primary School,Coed,Goulburn ,-34.7626,149.7304
410,Goulburn North Public School,Primary School,Coed,Goulburn North ,-34.7446,149.735
411,Goulburn South Public School,Primary School,Coed,Goulburn ,-34.76,149.7123
412,Grafton Public School,Primary School,Coed,Grafton ,-29.685,152.9333
413,South Grafton Public School,Primary School,Coed,South Grafton ,-29.7099,152.9371
414,Granville Public School,Primary School,Coed,Granville ,-33.8343,151.0047
415,Granville South Public School,Primary School,Coed,Guildford ,-33.8483,150.9959
416,Gravesend Public School,Primary School,Coed,Gravesend ,-29.5854,150.3324
417,Greenethorpe Public School,Primary School,Coed,Greenethorpe ,-33.9977,148.4001
418,Green Hill Public School,Primary School,Coed,West Kempsey,-31.0596,152.8027
419,Green Valley Public School,Primary School,Coed,Green Valley ,-33.9007,150.869
420,Greenwich Public School,Primary School,Coed,Greenwich,-33.8259,151.1833
421,Grenfell Public School,Primary School,Coed,Grenfell ,-33.8923,148.1675
422,Gresford Public School,Primary School,Coed,Gresford ,-32.4276,151.5383
423,Greta Public School,Primary School,Coed,Greta,-32.6801,151.3872
424,Greystanes Public School,Primary School,Coed,Greystanes ,-33.828,150.9411
425,Griffith Public School,Primary School,Coed,Griffith ,-34.2914,146.0363
426,Guildford Public School,Primary School,Coed,Guildford ,-33.8558,150.982
427,Gulargambone Central School,Central/Community School,Coed,Gulargambone ,-31.3322,148.4758
428,Gulgong Public School,Primary School,Coed,Gulgong ,-32.3597,149.5377
429,Gulmarrad Public School,Primary School,Coed,Gulmarrad,-29.4892,153.2336
430,Gum Flat Public School,Primary School,Coed,Gum Flat ,-29.7796,150.9792
431,Gundagai Public School,Primary School,Coed,Gundagai ,-35.0521,148.1092
432,Gundagai South Public School,Primary School,Coed,South Gundagai,-35.0808,148.1031
433,Gundaroo Public School,Primary School,Coed,Gundaroo ,-35.0299,149.2671
434,Gunnedah Public School,Primary School,Coed,Gunnedah ,-30.9775,150.2563
435,Gunning Public School,Primary School,Coed,Gunning ,-34.7835,149.2656
436,Guyra Central School,Central/Community School,Coed,Guyra ,-30.2226,151.6774
437,Gwabegar Public School,Primary School,Coed,Gwabegar ,-30.6115,148.975
438,Gymea Bay Public School,Primary School,Coed,Gymea Bay,-34.0469,151.0828
439,Haberfield Public School,Primary School,Coed,Haberfield ,-33.8795,151.134
440,Hammondville Public School,Primary School,Coed,Hammondville ,-33.9473,150.9545
441,Hampton Public School,Primary School,Coed,Hampton ,-33.6485,150.0489
442,Hannam Vale Public School,Primary School,Coed,Hannam Vale ,-31.7129,152.594
443,Hanwood Public School,Primary School,Coed,Hanwood ,-34.3297,146.0424
444,Harbord Public School,Primary School,Coed,Freshwater,-33.7722,151.2865
445,Hargraves Public School,Primary School,Coed,Hargraves ,-32.7833,149.4619
446,Harrington Public School,Primary School,Coed,Harrington ,-31.8702,152.6888
447,Harwood Island Public School,Primary School,Coed,Harwood,-29.4256,153.2403
448,Hay Public School,Primary School,Coed,Hay ,-34.506,144.8454
449,Heathcote Public School,Primary School,Coed,Heathcote ,-34.0867,151.0073
450,Helensburgh Public School,Primary School,Coed,Helensburgh ,-34.1842,150.9884
451,Henty Public School,Primary School,Coed,Henty ,-35.5175,147.0312
452,Hermidale Public School,Primary School,Coed,Hermidale ,-31.5512,146.7234
453,Hernani Public School,Primary School,Coed,Dorrigo ,-30.2945,152.4227
454,Herons Creek Public School,Primary School,Coed,Herons Creek ,-31.5804,152.73
455,Hill End Public School,Primary School,Coed,Hill End ,-33.0346,149.4159
456,Hillside Public School,Primary School,Coed,Glenorie ,-33.6018,150.9762
457,Hillston Central School,Central/Community School,Coed,Hillston ,-33.4799,145.5403
458,Hill Top Public School,Primary School,Coed,Hill Top ,-34.3548,150.4914
459,Hinton Public School,Primary School,Coed,Hinton ,-32.7167,151.6507
460,Holbrook Public School,Primary School,Coed,Holbrook ,-35.7179,147.319
461,Holgate Public School,Primary School,Coed,Holgate ,-33.4051,151.4077
462,Holmwood Public School,Primary School,Coed,Cowra ,-33.8106,148.7568
463,Homebush Public School,Primary School,Coed,Homebush ,-33.8673,151.0852
464,Telarah Public School,Primary School,Coed,Maitland ,-32.7252,151.5324
465,Horsley Park Public School,Primary School,Coed,Horsley Park ,-33.8404,150.8527
466,Howlong Public School,Primary School,Coed,Howlong ,-35.9799,146.6368
467,Hoxton Park Public School,Primary School,Coed,Hoxton Park,-33.9319,150.8496
468,Humula Public School,Primary School,Coed,Humula ,-35.4833,147.7606
469,Hunters Hill Public School,Primary School,Coed,Hunters Hill ,-33.8351,151.1513
470,Huntingdon Public School,Primary School,Coed,Wauchope ,-31.4782,152.6606
471,Rathmines Public School,Primary School,Coed,Rathmines ,-33.0426,151.5899
472,Hurstville Public School,Primary School,Coed,Hurstville ,-33.9647,151.1107
473,Hurstville South Public School,Primary School,Coed,Hurstville ,-33.9725,151.0993
474,Huskisson Public School,Primary School,Coed,Huskisson ,-35.0368,150.6681
475,Ilford Public School,Primary School,Coed,Ilford ,-32.9667,149.8555
476,Illabo Public School,Primary School,Coed,Illabo,-34.814,147.7412
477,Iluka Public School,Primary School,Coed,Iluka,-29.4047,153.3489
478,Ingleburn Public School,Primary School,Coed,Ingleburn ,-34.0003,150.8666
479,Inverell Public School,Primary School,Coed,Inverell ,-29.7731,151.123
480,Iona Public School,Primary School,Coed,Woodville,-32.6651,151.6042
481,Islington Public School,Primary School,Coed,Islington ,-32.9114,151.7441
482,Ivanhoe Central School,Central/Community School,Coed,Ivanhoe ,-32.8985,144.301
483,Fernleigh Public School,Primary School,Coed,Fernleigh ,-28.7677,153.4984
484,Jamberoo Public School,Primary School,Coed,Jamberoo ,-34.6446,150.773
485,Jennings Public School,Primary School,Coed,Jennings,-28.9272,151.9344
486,Jerangle Public School,Primary School,Coed,Jerangle,-35.8711,149.3643
487,Jerilderie Public School,Primary School,Coed,Jerilderie ,-35.3546,145.7289
488,Jerrys Plains Public School,Primary School,Coed,Jerrys Plains ,-32.4972,150.9059
489,Jesmond Public School,Primary School,Coed,Jesmond ,-32.9038,151.6954
490,Jiggi Public School,Primary School,Coed,Jiggi ,-28.678,153.1814
491,Jilliby Public School,Primary School,Coed,Wyong ,-33.2399,151.3801
492,Jindabyne Central School,Central/Community School,Coed,Jindabyne ,-36.4167,148.6189
493,Jindera Public School,Primary School,Coed,Jindera ,-35.959,146.8867
494,Johns River Public School,Primary School,Coed,Johns River ,-31.733,152.6966
495,Jugiong Public School,Primary School,Coed,Jugiong ,-34.8202,148.3354
496,The Junction Public School,Primary School,Coed,Merewether ,-32.94,151.7586
497,Junee Public School,Primary School,Coed,Junee,-34.8735,147.5849
498,Junee North Public School,Primary School,Coed,Junee ,-34.855,147.5854
499,Kandos Public School,Primary School,Coed,Kandos,-32.8562,149.9748
500,Kangaloon Public School,Primary School,Coed,Kangaloon ,-34.5526,150.5296
501,Kangaroo Valley Public School,Primary School,Coed,Kangaroo Valley ,-34.7365,150.532
502,Kanwal Public School,Primary School,Coed,Kanwal ,-33.2625,151.4849
503,Karangi Public School,Primary School,Coed,Karangi ,-30.2524,153.0478
504,Karuah Public School,Primary School,Coed,Karuah ,-32.6543,151.9666
505,Kearsley Public School,Primary School,Coed,Kearsley,-32.8573,151.3959
506,Kegworth Public School,Primary School,Coed,Leichhardt ,-33.8865,151.1469
507,Keiraville Public School,Primary School,Coed,Keiraville ,-34.4141,150.8734
508,Kellys Plains Public School,Primary School,Coed,Armidale,-30.5719,151.6365
509,Kellyville Public School,Primary School,Coed,Kellyville,-33.7111,150.9579
510,Kelso Public School,Primary School,Coed,Kelso ,-33.417,149.6052
511,Kempsey East Public School,Primary School,Coed,Kempsey ,-31.0837,152.8469
512,Kempsey West Public School,Primary School,Coed,West Kempsey,-31.0784,152.8301
513,Kendall Public School,Primary School,Coed,Kendall ,-31.6274,152.7028
514,Kensington Public School,Primary School,Coed,Kensington,-33.9096,151.225
515,Kenthurst Public School,Primary School,Coed,Kenthurst,-33.6656,151.0046
516,Kentlyn Public School,Primary School,Coed,Campbelltown ,-34.0731,150.8586
517,Kentucky Public School,Primary School,Coed,Kentucky ,-30.7596,151.4492
518,Kiama Public School,Primary School,Coed,Kiama,-34.6697,150.8506
519,Kinchela Public School,Primary School,Coed,Kinchela ,-30.9911,152.9951
520,Kincumber Public School,Primary School,Coed,Kincumber ,-33.4682,151.3943
521,Kingsgrove Public School,Primary School,Coed,Kingsgrove ,-33.9478,151.1016
522,Bexley North Public School,Primary School,Coed,Bexley ,-33.9408,151.1204
523,Kingstown Public School,Primary School,Coed,Kingstown ,-30.5067,151.1164
524,Kingswood Public School,Primary School,Coed,Kingswood ,-33.7659,150.7265
525,Kirkton Public School,Primary School,Coed,Belford,-32.6098,151.2901
526,Kitchener Public School,Primary School,Coed,Kitchener,-32.8778,151.37
527,Kogarah Public School,Primary School,Coed,Kogarah ,-33.962,151.1366
528,Koorawatha Public School,Primary School,Coed,Koorawatha,-34.0349,148.5597
529,Kootingal Public School,Primary School,Coed,Kootingal,-31.0535,151.0537
530,Kororo Public School,Primary School,Coed,Korora,-30.2546,153.1319
531,Krambach Public School,Primary School,Coed,Krambach ,-32.0461,152.2723
532,Kulnura Public School,Primary School,Coed,Kulnura ,-33.2326,151.216
533,Kurmond Public School,Primary School,Coed,Kurmond ,-33.5497,150.6923
534,Kurnell Public School,Primary School,Coed,Kurnell ,-34.0102,151.2038
535,Kurrajong Public School,Primary School,Coed,Kurrajong ,-33.5552,150.6627
536,Kurrajong East Public School,Primary School,Coed,East Kurrajong,-33.5112,150.7773
537,Kurrajong North Public School,Primary School,Coed,Kurrajong Hills ,-33.5418,150.6395
538,Kyogle Public School,Primary School,Coed,Kyogle ,-28.6252,153.0039
539,Ladysmith Public School,Primary School,Coed,Ladysmith ,-35.2085,147.511
540,Laggan Public School,Primary School,Coed,Laggan ,-34.4062,149.5277
541,Laguna Public School,Primary School,Coed,Laguna,-32.9921,151.1305
542,Lake Albert Public School,Primary School,Coed,Lake Albert ,-35.1736,147.3792
543,Lake Cargelligo Central School,Central/Community School,Coed,Lake Cargelligo,-33.2948,146.374
544,Lakemba Public School,Primary School,Coed,Lakemba ,-33.9236,151.0701
545,Lake Munmorah Public School,Primary School,Coed,Lake Munmorah,-33.1882,151.5756
546,Lake Wyangan Public School,Primary School,Coed,Lake Wyangan ,-34.2482,146.0342
547,Lambton Public School,Primary School,Coed,Lambton,-32.9117,151.7041
548,Lane Cove Public School,Primary School,Coed,Lane Cove ,-33.8165,151.1691
549,Lansdowne Public School,Primary School,Coed,Lansdowne,-31.7839,152.5321
550,Upper Lansdowne Public School,Primary School,Coed,Upper Lansdowne ,-31.7052,152.4674
551,La Perouse Public School,Primary School,Coed,La Perouse ,-33.9784,151.2354
552,Largs Public School,Primary School,Coed,Largs ,-32.7005,151.6056
553,Larnook Public School,Primary School,Coed,Larnook,-28.6486,153.1148
554,Laurieton Public School,Primary School,Coed,Laurieton ,-31.6518,152.7975
555,Lavington Public School,Primary School,Coed,Lavington ,-36.0374,146.9283
556,Lawrence Public School,Primary School,Coed,Lawrence ,-29.4916,153.1004
557,Lawson Public School,Primary School,Coed,Lawson,-33.7212,150.4282
558,Leeton Public School,Primary School,Coed,Leeton,-34.5461,146.4072
559,Leura Public School,Primary School,Coed,Leura,-33.7112,150.3367
560,Lidcombe Public School,Primary School,Coed,Lidcombe ,-33.861,151.0469
561,Lightning Ridge Central School,Central/Community School,Coed,Lightning Ridge,-29.4252,147.9786
562,Lindfield Public School,Primary School,Coed,Lindfield ,-33.7808,151.1689
563,Lindfield East Public School,Primary School,Coed,East Lindfield,-33.7675,151.1843
564,Lisarow Public School,Primary School,Coed,Lisarow,-33.3813,151.3763
565,Lismore South Public School,Primary School,Coed,South Lismore,-28.8095,153.2621
566,Lithgow Public School,Primary School,Coed,Lithgow ,-33.4821,150.1602
567,Llandilo Public School,Primary School,Coed,Llandilo,-33.7072,150.7518
568,Lochinvar Public School,Primary School,Coed,Lochinvar ,-32.7003,151.452
569,Lockhart Central School,Central/Community School,Coed,Lockhart ,-35.2228,146.7148
570,Londonderry Public School,Primary School,Coed,Londonderry ,-33.6475,150.7369
571,Long Flat Public School,Primary School,Coed,Long Flat,-31.4378,152.4861
572,Lowanna Public School,Primary School,Coed,Lowanna ,-30.2072,152.8999
573,Lowesdale Public School,Primary School,Coed,Lowesdale ,-35.8562,146.3687
574,Luddenham Public School,Primary School,Coed,Luddenham,-33.8813,150.6915
575,Lue Public School,Primary School,Coed,Lue,-32.6563,149.8446
576,Lyndhurst Public School,Primary School,Coed,Lyndhurst ,-33.6733,149.0449
577,Macdonald Valley Public School,Primary School,Coed,Central Macdonald,-33.3213,150.972
578,Macksville Public School,Primary School,Coed,Macksville ,-30.7078,152.9171
579,Maimuru Public School,Primary School,Coed,Maimuru ,-34.2431,148.2143
580,Maitland East Public School,Primary School,Coed,East Maitland,-32.749,151.5853
581,Malabar Public School,Primary School,Coed,Malabar,-33.9622,151.2486
582,Mandurama Public School,Primary School,Coed,Mandurama ,-33.6515,149.0695
583,Manifold Public School,Primary School,Coed,Bentley ,-28.7491,153.0771
584,Manildra Public School,Primary School,Coed,Manildra,-33.1842,148.7001
585,Manly West Public School,Primary School,Coed,Balgowlah ,-33.7919,151.2688
586,Maraylya Public School,Primary School,Coed,Maraylya ,-33.5927,150.9163
587,Pelican Flat Public School,Primary School,Coed,Pelican,-33.0743,151.6483
588,Maroota Public School,Primary School,Coed,Maroota,-33.4553,150.9937
589,Maroubra Bay Public School,Primary School,Coed,Maroubra ,-33.9442,151.253
590,Marrar Public School,Primary School,Coed,Marrar ,-34.8283,147.3551
591,Marsden Park Public School,Primary School,Coed,Marsden Park,-33.6964,150.8336
592,Martindale Public School,Primary School,Coed,Martindale,-32.4588,150.6657
593,Martins Creek Public School,Primary School,Coed,Martins Creek ,-32.566,151.6235
594,Martins Gully Public School,Primary School,Coed,Armidale ,-30.5239,151.6373
595,Marulan Public School,Primary School,Coed,Marulan ,-34.7134,150.0066
596,Mascot Public School,Primary School,Coed,Mascot ,-33.9286,151.1925
597,Mathoura Public School,Primary School,Coed,Mathoura,-35.8161,144.9021
598,Matong Public School,Primary School,Coed,Matong,-34.7701,146.9273
599,Matraville Public School,Primary School,Coed,Matraville ,-33.9551,151.2291
600,Mayfield East Public School,Primary School,Coed,Mayfield East ,-32.8954,151.7487
601,Mayfield West Public School,Primary School,Coed,Mayfield ,-32.8887,151.7301
602,Mayrung Public School,Primary School,Coed,Deniliquin ,-35.4643,145.3088
603,Meadow Flat Public School,Primary School,Coed,Meadow Flat,-33.4337,149.9205
604,The Meadows Public School,Primary School,Coed,Seven Hills ,-33.7814,150.9426
605,Medlow Public School,Primary School,Coed,Medlow ,-30.7791,152.6902
606,Medowie Public School,Primary School,Coed,Medowie,-32.7382,151.8541
607,Megalong Public School,Primary School,Coed,Megalong ,-33.7153,150.2326
608,Menai Public School,Primary School,Coed,Menai ,-34.0121,151.0066
609,Mendooran Central School,Central/Community School,Coed,Mendooran,-31.8187,149.1225
610,Menindee Central School,Central/Community School,Coed,Menindee,-32.3934,142.4133
611,Merewether Public School,Primary School,Coed,Merewether,-32.9375,151.7422
612,Merimbula Public School,Primary School,Coed,Merimbula,-36.8865,149.9169
613,Merriwa Central School,Central/Community School,Coed,Merriwa,-32.1451,150.3529
614,Merrylands Public School,Primary School,Coed,Merrylands ,-33.8405,150.976
615,Bonnells Bay Public School,Primary School,Coed,Bonnells Bay ,-33.1145,151.5168
616,Michelago Public School,Primary School,Coed,Michelago,-35.706,149.1617
617,Middle Dural Public School,Primary School,Coed,Middle Dural ,-33.645,151.0232
618,Middle Harbour Public School,Primary School,Coed,Mosman ,-33.8228,151.2327
619,Milbrodale Public School,Primary School,Coed,Milbrodale,-32.6968,151.0058
620,Millbank Public School,Primary School,Coed,Willawarrin ,-30.8622,152.6357
621,Millers Forest Public School,Primary School,Coed,Millers Forest,-32.7521,151.7037
622,Millfield Public School,Primary School,Coed,Millfield ,-32.8898,151.2508
623,Millthorpe Public School,Primary School,Coed,Millthorpe ,-33.4451,149.1859
624,Milperra Public School,Primary School,Coed,Milperra ,-33.9421,150.9798
625,Milton Public School,Primary School,Coed,Milton ,-35.3141,150.4358
626,Minmi Public School,Primary School,Coed,Minmi ,-32.8761,151.6175
627,Minto Public School,Primary School,Coed,Minto ,-34.03,150.8473
628,Miranda Public School,Primary School,Coed,Miranda,-34.0346,151.0974
629,Mitchells Island Public School,Primary School,Coed,Mitchells Island,-31.8968,152.6141
630,Mittagong Public School,Primary School,Coed,Mittagong ,-34.448,150.4444
631,Moama Public School,Primary School,Coed,Moama ,-36.1153,144.7628
632,Modanville Public School,Primary School,Coed,Lismore ,-28.7302,153.2972
633,Mogo Public School,Primary School,Coed,Mogo ,-35.7861,150.1406
634,Molong Central School,Central/Community School,Coed,Molong ,-33.098,148.8639
635,Mona Vale Public School,Primary School,Coed,Mona Vale ,-33.677,151.3004
636,Monteagle Public School,Primary School,Coed,Monteagle ,-34.193,148.3472
637,Moonbi Public School,Primary School,Coed,Moonbi ,-31.0198,151.0736
638,Moorland Public School,Primary School,Coed,Moorland,-31.7696,152.6512
639,Moree Public School,Primary School,Coed,Moree ,-29.4662,149.8376
640,Morisset Public School,Primary School,Coed,Morisset,-33.1035,151.4896
641,Morpeth Public School,Primary School,Coed,Morpeth ,-32.7257,151.6321
642,Mortdale Public School,Primary School,Coed,Mortdale ,-33.9729,151.081
643,Mortlake Public School,Primary School,Coed,Concord,-33.8498,151.1039
644,Moruya Public School,Primary School,Coed,Moruya ,-35.9126,150.0764
645,Moss Vale Public School,Primary School,Coed,Moss Vale ,-34.5506,150.3664
646,Moulamein Public School,Primary School,Coed,Moulamein ,-35.0893,144.0328
647,Mount George Public School,Primary School,Coed,Mount George ,-31.881,152.1796
648,Mount Hunter Public School,Primary School,Coed,Camden ,-34.0718,150.6364
649,Mount Kanwary Public School,Primary School,Coed,Osterley,-32.7242,151.6991
650,Mount Keira Public School,Primary School,Coed,Mount Keira ,-34.4114,150.8562
651,Mount Kembla Public School,Primary School,Coed,Mount Kembla ,-34.4324,150.8171
652,Mount Pleasant Public School,Primary School,Coed,Singleton,-32.4085,151.1888
653,Mount Pritchard Public School,Primary School,Coed,Mount Pritchard ,-33.8998,150.9
654,Mount Victoria Public School,Primary School,Coed,Mount Victoria ,-33.5913,150.2539
655,Mudgee Public School,Primary School,Coed,Mudgee ,-32.5959,149.584
656,Mulbring Public School,Primary School,Coed,Mulbring ,-32.9013,151.4786
657,Mulgoa Public School,Primary School,Coed,Mulgoa ,-33.8365,150.6503
658,Mullaley Public School,Primary School,Coed,Mullaley ,-31.0987,149.9067
659,Mullengandra Public School,Primary School,Coed,Mullengandra ,-35.9001,147.1647
660,Mullion Creek Public School,Primary School,Coed,Mullion Creek,-33.139,149.1205
661,Mullumbimby Public School,Primary School,Coed,Mullumbimby ,-28.552,153.5059
662,Mulwala Public School,Primary School,Coed,Mulwala,-35.9871,146.0066
663,Clergate Public School,Primary School,Coed,Clergate ,-33.1921,149.1123
664,Mumbil Public School,Primary School,Coed,Mumbil ,-32.7224,149.0527
665,Mummulgum Public School,Primary School,Coed,Mummulgum,-28.848,152.8017
666,Mungindi Central School,Central/Community School,Coed,Mungindi ,-28.9802,148.9908
667,Murringo Public School,Primary School,Coed,Murringo,-34.2972,148.5155
668,Murrumburrah Public School,Primary School,Coed,Murrumburrah,-34.5508,148.3599
669,Murrurundi Public School,Primary School,Coed,Murrurundi,-31.7628,150.8322
670,Murwillumbah Public School,Primary School,Coed,Murwillumbah ,-28.3299,153.3911
671,Muswellbrook Public School,Primary School,Coed,Muswellbrook ,-32.2584,150.8964
672,Nabiac Public School,Primary School,Coed,Nabiac,-32.0975,152.3819
673,Nambucca Heads Public School,Primary School,Coed,Nambucca Heads ,-30.6417,153.0063
674,Nana Glen Public School,Primary School,Coed,Nana Glen ,-30.1356,153.0062
675,Nangus Public School,Primary School,Coed,Nangus ,-35.0539,147.9091
676,Naradhan Public School,Primary School,Coed,Naradhan ,-33.6156,146.3274
677,Narara Public School,Primary School,Coed,Lisarow ,-33.3879,151.3626
678,Narellan Public School,Primary School,Coed,Narellan,-34.0428,150.7338
679,Narrabeen Lakes Public School,Primary School,Coed,Narrabeen ,-33.7203,151.2974
680,Narrabri Public School,Primary School,Coed,Narrabri ,-30.3249,149.7852
681,Narrabri West Public School,Primary School,Coed,Narrabri ,-30.3445,149.7639
682,Narrandera Public School,Primary School,Coed,Narrandera ,-34.7445,146.5479
683,Narromine Public School,Primary School,Coed,Narromine ,-32.2299,148.2444
684,Nashdale Public School,Primary School,Coed,Nashdale ,-33.2938,149.0135
685,Tomaree Public School,Primary School,Coed,Salamander Bay,-32.7377,152.1131
686,Nemingha Public School,Primary School,Coed,Nemingha ,-31.1265,151.0042
687,Neutral Bay Public School,Primary School,Coed,Neutral Bay ,-33.8326,151.2196
688,Neville Public School,Primary School,Coed,Neville ,-33.7087,149.2168
689,Newcastle East Public School,Primary School,Coed,Newcastle ,-32.9303,151.7769
690,New Lambton Public School,Primary School,Coed,New Lambton ,-32.9226,151.7128
691,Newport Public School,Primary School,Coed,Newport ,-33.6606,151.3122
692,Newrybar Public School,Primary School,Coed,Newrybar ,-28.7171,153.5331
693,Newtown North Public School,Primary School,Coed,Newtown ,-33.8918,151.1854
694,Niangala Public School,Primary School,Coed,Niangala ,-31.298,151.4086
695,Nicholson Street Public School,Primary School,Coed,Balmain East ,-33.8557,151.1932
696,Nimbin Central School,Central/Community School,Coed,Nimbin ,-28.5959,153.2209
697,Nimmitabel Public School,Primary School,Coed,Nimmitabel,-36.5109,149.2896
698,Narooma Public School,Primary School,Coed,Narooma ,-36.2186,150.1373
699,Nords Wharf Public School,Primary School,Coed,Nords Wharf ,-33.1358,151.6051
700,Normanhurst Public School,Primary School,Coed,Normanhurst ,-33.7233,151.098
701,Northbridge Public School,Primary School,Coed,Northbridge ,-33.813,151.2186
702,Northmead Public School,Primary School,Coed,Northmead ,-33.7865,150.9908
703,North Rocks Public School,Primary School,Coed,North Rocks,-33.7684,151.0251
704,North Star Public School,Primary School,Coed,North Star ,-28.9267,150.3929
705,North Sydney Public School,Primary School,Coed,Waverton ,-33.8348,151.2037
706,Nowendoc Public School,Primary School,Coed,Nowendoc,-31.483,151.7154
707,Nowra Public School,Primary School,Coed,Nowra,-34.8794,150.6005
708,Nulkaba Public School,Primary School,Coed,Nulkaba,-32.8107,151.3478
709,Nundle Public School,Primary School,Coed,Nundle ,-31.4597,151.1274
710,Nymboida Public School,Primary School,Coed,Nymboida ,-29.9475,152.728
711,Nyngan Public School,Primary School,Coed,Nyngan,-31.5684,147.1953
712,Oakdale Public School,Primary School,Coed,Oakdale ,-34.0789,150.5082
713,Oaklands Central School,Central/Community School,Coed,Oaklands,-35.5527,146.1718
714,The Oaks Public School,Primary School,Coed,The Oaks ,-34.0784,150.5717
715,Oakville Public School,Primary School,Coed,Oakville,-33.6205,150.8705
716,Oatley Public School,Primary School,Coed,Oatley,-33.9837,151.0803
717,Oberon Public School,Primary School,Coed,Oberon,-33.7033,149.8645
718,O'Connell Public School,Primary School,Coed,O'Connell ,-33.5245,149.7201
719,Old Bar Public School,Primary School,Coed,Old Bar ,-31.9723,152.5885
720,Old Bonalbo Public School,Primary School,Coed,Old Bonalbo ,-28.6546,152.5974
721,Old Guildford Public School,Primary School,Coed,Guildford ,-33.8675,150.9865
722,Orange East Public School,Primary School,Coed,Orange ,-33.2821,149.1137
723,Orange Grove Public School,Primary School,Coed,Leichhardt ,-33.8723,151.1587
724,Orara Upper Public School,Primary School,Coed,Upper Orara ,-30.289,153.0132
725,Orchard Hills Public School,Primary School,Coed,Orchard Hills ,-33.783,150.7214
726,Otford Public School,Primary School,Coed,Otford ,-34.2122,151.0015
727,Ourimbah Public School,Primary School,Coed,Ourimbah ,-33.3549,151.3682
728,Oxley Island Public School,Primary School,Coed,Oxley Island,-31.9123,152.5686
729,Padstow Park Public School,Primary School,Coed,Padstow,-33.955,151.0309
730,Pallamallawa Public School,Primary School,Coed,Pallamallawa,-29.4739,150.1415
731,Palmers Island Public School,Primary School,Coed,Palmers Island,-29.4196,153.2882
732,Pambula Public School,Primary School,Coed,Pambula ,-36.9255,149.8718
733,Parkes Public School,Primary School,Coed,Parkes ,-33.1323,148.1763
734,Parklea Public School,Primary School,Coed,Glenwood,-33.7259,150.9348
735,Parramatta Public School,Primary School,Coed,Parramatta,-33.8157,151.0077
736,Wooli Public School,Primary School,Coed,Wooli ,-29.8709,153.2658
737,Parramatta North Public School,Primary School,Coed,North Parramatta,-33.804,151.0047
738,Parramatta West Public School,Primary School,Coed,Parramatta ,-33.8245,150.991
739,Paterson Public School,Primary School,Coed,Paterson ,-32.6023,151.6123
740,Paxton Public School,Primary School,Coed,Paxton ,-32.901,151.2846
741,Peak Hill Central School,Central/Community School,Coed,Peak Hill ,-32.7289,148.1921
742,Peakhurst Public School,Primary School,Coed,Peakhurst,-33.9554,151.0623
743,Peats Ridge Public School,Primary School,Coed,Peats Ridge,-33.3258,151.2328
744,Pelaw Main Public School,Primary School,Coed,Pelaw Main ,-32.8319,151.4847
745,Pennant Hills Public School,Primary School,Coed,Pennant Hills ,-33.7358,151.0681
746,West Pennant Hills Public School,Primary School,Coed,West Pennant Hills ,-33.7461,151.0505
747,Penrith Public School,Primary School,Coed,Penrith ,-33.7559,150.7044
748,Penrose Public School,Primary School,Coed,Penrose,-34.6697,150.2213
749,Penshurst Public School,Primary School,Coed,Penshurst ,-33.9626,151.0877
750,Perthville Public School,Primary School,Coed,Perthville ,-33.4911,149.55
751,Picton Public School,Primary School,Coed,Picton ,-34.1762,150.6093
752,Pilliga Public School,Primary School,Coed,Pilliga ,-30.3522,148.8891
753,Pitt Town Public School,Primary School,Coed,Pitt Town ,-33.5839,150.8596
754,Pleasant Hills Public School,Primary School,Coed, PLEASANT HILLS,-35.4665,146.7985
755,Plumpton Public School,Primary School,Coed,Plumpton ,-33.7492,150.8386
756,The Pocket Public School,Primary School,Coed,The Pocket,-28.5054,153.4791
757,Pomona Public School,Primary School,Coed,Pomona,-34.0257,141.8949
758,Port Kembla Public School,Primary School,Coed,Port Kembla ,-34.4861,150.9147
759,Portland Central School,Central/Community School,Coed,Portland,-33.3548,149.9797
760,Port Macquarie Public School,Primary School,Coed,Port Macquarie ,-31.4299,152.9139
761,Premer Public School,Primary School,Coed,Premer ,-31.4536,149.9005
762,Prestons Public School,Primary School,Coed,Prestons ,-33.9464,150.89
763,Pretty Beach Public School,Primary School,Coed,Pretty Beach,-33.528,151.35
764,Primbee Public School,Primary School,Coed,Primbee,-34.5014,150.8823
765,Punchbowl Public School,Primary School,Coed,Punchbowl,-33.9306,151.0559
766,Putney Public School,Primary School,Coed,Ryde ,-33.8246,151.111
767,Quaama Public School,Primary School,Coed,Quaama ,-36.4642,149.8671
768,Quakers Hill Public School,Primary School,Coed,Quakers Hill ,-33.7375,150.8853
769,Quambone Public School,Primary School,Coed,Quambone ,-30.9307,147.872
770,Quandialla Public School,Primary School,Coed,Quandialla ,-34.0104,147.7905
771,Queanbeyan Public School,Primary School,Coed,Queanbeyan ,-35.3575,149.2362
772,Leppington Public School,Primary School,Coed,Leppington,-33.9593,150.8109
773,Raglan Public School,Primary School,Coed,Raglan ,-33.428,149.6481
774,Rainbow Street Public School,Primary School,Coed,Randwick,-33.9246,151.2372
775,Raleigh Public School,Primary School,Coed,Raleigh ,-30.4501,153.0126
776,Rand Public School,Primary School,Coed,Rand ,-35.5961,146.5804
777,Rankins Springs Public School,Primary School,Coed,Rankins Springs ,-33.84,146.2582
778,Rappville Public School,Primary School,Coed,Rappville,-29.0858,152.9553
779,Raymond Terrace Public School,Primary School,Coed,Raymond Terrace ,-32.767,151.74
780,Redhead Public School,Primary School,Coed,Redhead ,-33.0116,151.7114
781,Red Range Public School,Primary School,Coed,Red Range,-29.7761,151.8974
782,Regents Park Public School,Primary School,Coed,Regents Park ,-33.8855,151.0247
783,Regentville Public School,Primary School,Coed,Regentville ,-33.7773,150.6683
784,Repton Public School,Primary School,Coed,Repton ,-30.446,153.029
785,Revesby Public School,Primary School,Coed,Revesby ,-33.9445,151.0172
786,Richmond North Public School,Primary School,Coed,North Richmond,-33.5806,150.7169
787,The Risk Public School,Primary School,Coed,The Risk ,-28.4769,152.934
788,Riverstone Public School,Primary School,Coed,Riverstone,-33.6784,150.871
789,Robertson Public School,Primary School,Coed,Robertson,-34.5896,150.5925
790,Rockdale Public School,Primary School,Coed,Rockdale ,-33.9526,151.1417
791,Rockley Public School,Primary School,Coed,Rockley ,-33.6919,149.5626
792,The Rock Central School,Central/Community School,Coed,The Rock ,-35.2663,147.1152
793,Whian Whian Public School,Primary School,Coed,Whian Whian ,-28.6382,153.3143
794,Rocky River Public School,Primary School,Coed,Uralla ,-30.6129,151.4918
795,Rollands Plains Upper Public School,Primary School,Coed,Rollands Plains ,-31.2393,152.6318
796,Rosebank Public School,Primary School,Coed,Rosebank ,-28.6783,153.3883
797,Rose Bay Public School,Primary School,Coed,Rose Bay ,-33.873,151.271
798,Roseville Public School,Primary School,Coed,Roseville ,-33.7819,151.1887
799,Rosewood Public School,Primary School,Coed,Rosewood ,-35.6702,147.8608
800,Ross Hill Public School,Primary School,Coed,Inverell,-29.7702,151.1031
801,Rossmore Public School,Primary School,Coed,Rossmore ,-33.9465,150.7709
802,Rous Public School,Primary School,Coed,Alstonville ,-28.8707,153.4066
803,Rouse Hill Public School,Primary School,Coed,Rouse Hill ,-33.6792,150.921
804,Rugby Public School,Primary School,Coed,Rugby ,-34.3922,148.9927
805,Rukenvale Public School,Primary School,Coed,Rukenvale ,-28.4683,152.8944
806,Rydalmere Public School,Primary School,Coed,Rydalmere,-33.8143,151.0447
807,Ryde Public School,Primary School,Coed,Ryde,-33.8126,151.108
808,North Ryde Public School,Primary School,Coed,North Ryde ,-33.7948,151.12
809,West Ryde Public School,Primary School,Coed,West Ryde ,-33.8084,151.0851
810,Rye Park Public School,Primary School,Coed,Rye Park ,-34.5216,148.9066
811,Rylstone Public School,Primary School,Coed,Rylstone,-32.7956,149.9729
812,St Johns Park Public School,Primary School,Coed,St Johns Park ,-33.8872,150.8993
813,St Marys Public School,Primary School,Coed,St Marys ,-33.7684,150.7706
814,St Peters Public School,Primary School,Coed,St Peters ,-33.913,151.1767
815,Salt Ash Public School,Primary School,Coed,Salt Ash,-32.7878,151.9039
816,Sans Souci Public School,Primary School,Coed,Sans Souci ,-33.995,151.1292
817,Savernake Public School,Primary School,Coed,Savernake,-35.7322,146.0476
818,Sawtell Public School,Primary School,Coed,Sawtell ,-30.3633,153.0976
819,Scarborough Public School,Primary School,Coed,Scarborough ,-34.2662,150.966
820,Schofields Public School,Primary School,Coed,Schofields ,-33.6931,150.8752
821,Seaham Public School,Primary School,Coed,Seaham ,-32.6621,151.7294
822,Seven Hills North Public School,Primary School,Coed,Seven Hills ,-33.76,150.955
823,Shellharbour Public School,Primary School,Coed,Shellharbour ,-34.579,150.8651
824,Shortland Public School,Primary School,Coed,Shortland ,-32.8814,151.6951
825,Singleton Public School,Primary School,Coed,Singleton ,-32.5631,151.1718
826,Smithfield Public School,Primary School,Coed,Smithfield ,-33.8536,150.9335
827,Smithtown Public School,Primary School,Coed,Smithtown ,-31.0182,152.9414
828,Sofala Public School,Primary School,Coed,Sofala ,-33.0822,149.6952
829,Somersby Public School,Primary School,Coed,Gosford ,-33.3584,151.2913
830,Somerton Public School,Primary School,Coed,Somerton ,-30.9384,150.6416
831,South West Rocks Public School,Primary School,Coed,South West Rocks,-30.8915,153.0399
832,Spring Hill Public School,Primary School,Coed,Spring Hill ,-33.3996,149.1513
833,Spring Ridge Public School,Primary School,Coed,Spring Ridge ,-31.3924,150.2547
834,Spring Terrace Public School,Primary School,Coed,Spring Terrace,-33.394,149.0974
835,Springwood Public School,Primary School,Coed,Springwood ,-33.7046,150.5735
836,Stanwell Park Public School,Primary School,Coed,Stanwell Park ,-34.2287,150.9845
837,Warrawong Public School,Primary School,Coed,Warrawong,-34.4814,150.8779
838,Stockinbingal Public School,Primary School,Coed,Stockinbingal ,-34.4976,147.8831
839,Stockton Public School,Primary School,Coed,Stockton ,-32.911,151.7811
840,Stokers Siding Public School,Primary School,Coed,Stokers Siding ,-28.3938,153.4044
841,Stratford Public School,Primary School,Coed,Stratford ,-32.1169,151.9392
842,Stratheden Public School,Primary School,Coed,Stratheden ,-28.7557,152.9372
843,Strathfield North Public School,Primary School,Coed,North Strathfield ,-33.8545,151.092
844,Strathfield South Public School,Primary School,Coed,Enfield ,-33.8908,151.0847
845,Stroud Public School,Primary School,Coed,Stroud ,-32.4025,151.9642
846,Stroud Road Public School,Primary School,Coed,Stroud Road ,-32.348,151.9324
847,Stuart Town Public School,Primary School,Coed,Stuart Town ,-32.8026,149.0683
848,Summer Hill Public School,Primary School,Coed,Summer Hill ,-33.8958,151.1358
849,Sutherland Public School,Primary School,Coed,Sutherland,-34.033,151.0591
850,Sutton Public School,Primary School,Coed,Sutton ,-35.1656,149.255
851,Swansea Public School,Primary School,Coed,Swansea ,-33.0841,151.6363
852,Sylvania Public School,Primary School,Coed,Sylvania ,-34.0081,151.1121
853,Tabulam Public School,Primary School,Coed,Tabulam,-28.8886,152.5687
854,Tacoma Public School,Primary School,Coed,Tacoma ,-33.283,151.4589
855,Tahmoor Public School,Primary School,Coed,Tahmoor ,-34.2277,150.5889
856,Tallimba Public School,Primary School,Coed,Tallimba ,-33.9936,146.8778
857,Tallong Public School,Primary School,Coed,Tallong,-34.7215,150.0833
858,Tambar Springs Public School,Primary School,Coed,Tambar Springs ,-31.3484,149.8279
859,Tamworth Public School,Primary School,Coed,Tamworth ,-31.0847,150.9353
860,Tamworth West Public School,Primary School,Coed,West Tamworth ,-31.0916,150.9206
861,Tanja Public School,Primary School,Coed,Tanja ,-36.6403,149.9751
862,Tarago Public School,Primary School,Coed,Tarago ,-35.0677,149.6548
863,Taralga Public School,Primary School,Coed,Taralga ,-34.398,149.821
864,Tarcutta Public School,Primary School,Coed,Tarcutta ,-35.2793,147.7383
865,Taree Public School,Primary School,Coed,Taree ,-31.9109,152.4622
866,Taren Point Public School,Primary School,Coed,Taren Point,-34.0181,151.1227
867,Tathra Public School,Primary School,Coed,Tathra ,-36.7328,149.9796
868,Tea Gardens Public School,Primary School,Coed,Tea Gardens ,-32.6678,152.158
869,Telegraph Point Public School,Primary School,Coed,Telegraph Point ,-31.3341,152.7931
870,Temora Public School,Primary School,Coed,Temora ,-34.4448,147.5353
871,Tenambit Public School,Primary School,Coed,Tenambit ,-32.7425,151.6049
872,The Sir Henry Parkes Memorial Public School,Primary School,Coed,Tenterfield,-29.0561,152.0261
873,Teralba Public School,Primary School,Coed,Teralba ,-32.9625,151.606
874,Terara Public School,Primary School,Coed,Terara ,-34.8666,150.6304
875,Terranora Public School,Primary School,Coed,Terranora ,-28.2402,153.4993
876,Terrey Hills Public School,Primary School,Coed,Terrey Hills ,-33.6857,151.2226
877,Terrigal Public School,Primary School,Coed,Terrigal ,-33.4424,151.4382
878,Tharbogang Public School,Primary School,Coed,Tharbogang ,-34.2616,145.9849
879,Thirlmere Public School,Primary School,Coed,Thirlmere ,-34.2048,150.5693
880,Thirroul Public School,Primary School,Coed,Thirroul,-34.3152,150.9187
881,Thornton Public School,Primary School,Coed,Thornton ,-32.7794,151.6395
882,Thurgoona Public School,Primary School,Coed,Thurgoona ,-36.0473,146.9833
883,Tibooburra Outback Public School,Primary School,Coed,Tibooburra ,-29.4321,142.0102
884,Tighes Hill Public School,Primary School,Coed,Tighes Hill ,-32.9081,151.7513
885,Central Tilba Public School,Primary School,Coed,Central Tilba ,-36.3157,150.0719
886,Tingha Public School,Primary School,Coed,Tingha ,-29.9591,151.2136
887,Tinonee Public School,Primary School,Coed,Tinonee ,-31.9329,152.4136
888,Tintinhull Public School,Primary School,Coed,Kootingal ,-31.0857,151.0084
889,Tirranna Public School,Primary School,Coed,Goulburn ,-34.8215,149.6821
890,Tocumwal Public School,Primary School,Coed,Tocumwal,-35.8139,145.5688
891,Tomerong Public School,Primary School,Coed,Tomerong ,-35.055,150.5872
892,Tooleybuc Central School,Central/Community School,Coed,Tooleybuc ,-35.0266,143.3381
893,Main Arm Upper Public School,Primary School,Coed,Upper Main Arm,-28.4985,153.4124
894,Toomelah Public School,Primary School,Coed,Boggabilla ,-28.6709,150.479
895,Toongabbie Public School,Primary School,Coed,Toongabbie ,-33.7872,150.9667
896,Tooraweenah Public School,Primary School,Coed,Tooraweenah ,-31.4348,148.9122
897,Toronto Public School,Primary School,Coed,Toronto ,-33.0083,151.5948
898,Tottenham Central School,Central/Community School,Coed,Tottenham ,-32.2456,147.3521
899,Toukley Public School,Primary School,Coed,Toukley ,-33.2678,151.5503
900,Towamba Public School,Primary School,Coed,Towamba ,-37.0842,149.6952
901,Trangie Central School,Central/Community School,Coed,Trangie ,-32.0325,147.9793
902,Tregeagle Public School,Primary School,Coed,Tregeagle,-28.8541,153.3544
903,Trundle Central School,Central/Community School,Coed,Trundle ,-32.9254,147.7092
904,Trunkey Public School,Primary School,Coed,Trunkey Creek,-33.8165,149.3262
905,Tucabia Public School,Primary School,Coed,Tucabia ,-29.6667,153.1066
906,Tuggerah Public School,Primary School,Coed,Tuggerah,-33.313,151.4156
907,Tullamore Central School,Central/Community School,Coed,Tullamore,-32.6368,147.566
908,Tullibigeal Central School,Central/Community School,Coed,Tullibigeal ,-33.4229,146.7227
909,Tumbarumba Public School,Primary School,Coed,Tumbarumba ,-35.7763,148.0138
910,Tumbulgum Public School,Primary School,Coed,Tumbulgum ,-28.274,153.4634
911,Tumut Public School,Primary School,Coed,Tumut,-35.3024,148.2186
912,Tuntable Creek Public School,Primary School,Coed,Tuntable Creek ,-28.6318,153.2662
913,Turramurra North Public School,Primary School,Coed,North Turramurra ,-33.7147,151.1478
914,Tweed Heads Public School,Primary School,Coed,Tweed Heads,-28.1695,153.5416
915,Tyalgum Public School,Primary School,Coed,Tyalgum ,-28.3545,153.205
916,Uki Public School,Primary School,Coed,Uki,-28.415,153.3343
917,Ulan Public School,Primary School,Coed,Ulan ,-32.2821,149.7435
918,Ulladulla Public School,Primary School,Coed,Ulladulla ,-35.3552,150.4694
919,Ulmarra Public School,Primary School,Coed,Ulmarra,-29.629,153.0309
920,Ulong Public School,Primary School,Coed,Ulong ,-30.243,152.8849
921,Ultimo Public School,Primary School,Coed,Ultimo ,-33.8777,151.1956
922,Unanderra Public School,Primary School,Coed,Cordeaux Heights ,-34.4455,150.8347
923,Undercliffe Public School,Primary School,Coed,Earlwood ,-33.9241,151.1386
924,Ungarie Central School,Central/Community School,Coed,Ungarie,-33.6371,146.978
925,Urana Public School,Primary School,Coed,Urana ,-35.3275,146.2671
926,Urbenville Public School,Primary School,Coed,Urbenville ,-28.4735,152.5456
927,Urunga Public School,Primary School,Coed,Urunga ,-30.4952,153.0204
928,Vacy Public School,Primary School,Coed,Vacy ,-32.5422,151.5776
929,Vaucluse Public School,Primary School,Coed,Vaucluse ,-33.8505,151.2812
930,Carramar Public School,Primary School,Coed,Carramar ,-33.8855,150.9692
931,Vineyard Public School,Primary School,Coed,Vineyard ,-33.6474,150.8579
932,Wagga Wagga Public School,Primary School,Coed,Wagga Wagga ,-35.1078,147.3658
933,North Wagga Public School,Primary School,Coed,Wagga Wagga,-35.0962,147.3795
934,South Wagga Public School,Primary School,Coed,Wagga Wagga,-35.1193,147.3668
935,Waitara Public School,Primary School,Coed,Wahroonga ,-33.7081,151.1116
936,Wakool Burraboi Public School,Primary School,Coed,Wakool,-35.4663,144.3931
937,Walbundrie Public School,Primary School,Coed,Walbundrie ,-35.6874,146.7268
938,Walcha Central School,Central/Community School,Coed,Walcha ,-30.9818,151.6042
939,Walgett Community College - Primary School,Primary School,Coed,Walgett ,-30.0203,148.1157
940,Walhallow Public School,Primary School,Coed,Caroona,-31.3951,150.4262
941,Wallabadah Public School,Primary School,Coed,Wallabadah,-31.541,150.8283
942,Wallacia Public School,Primary School,Coed,Wallacia,-33.8627,150.6416
943,Walla Walla Public School,Primary School,Coed,Walla Walla ,-35.758,146.9006
944,Wallendbeen Public School,Primary School,Coed,Wallendbeen ,-34.5252,148.1592
945,Wallerawang Public School,Primary School,Coed,Wallerawang ,-33.4177,150.0698
946,Wallsend Public School,Primary School,Coed,Wallsend,-32.9081,151.6716
947,West Wallsend Public School,Primary School,Coed,West Wallsend ,-32.9046,151.5807
948,Wamoon Public School,Primary School,Coed,Leeton,-34.526,146.3309
949,Wanaaring Public School,Primary School,Coed,Wanaaring ,-29.7053,144.1455
950,Wangi Wangi Public School,Primary School,Coed,Wangi Wangi ,-33.0723,151.583
951,Waratah Public School,Primary School,Coed,Waratah,-32.905,151.7226
952,Wardell Public School,Primary School,Coed,Wardell ,-28.9503,153.4688
953,Warialda Public School,Primary School,Coed,Warialda ,-29.5418,150.5736
954,Warners Bay Public School,Primary School,Coed,Warners Bay,-32.98,151.6486
955,Warrawee Public School,Primary School,Coed,Turramurra,-33.7295,151.1212
956,Warren Central School,Central/Community School,Coed,Warren ,-31.7051,147.8365
957,Waterfall Public School,Primary School,Coed,Waterfall ,-34.1376,150.996
958,Wattle Flat Public School,Primary School,Coed,Wattle Flat ,-33.1415,149.6927
959,Wauchope Public School,Primary School,Coed,Wauchope ,-31.4559,152.7295
960,Wee Jasper Public School,Primary School,Coed,Wee Jasper ,-35.1088,148.6738
961,Weethalle Public School,Primary School,Coed,Weethalle ,-33.88,146.6193
962,Wee Waa Public School,Primary School,Coed,Wee Waa ,-30.2236,149.4426
963,Wellington Public School,Primary School,Coed,Wellington ,-32.5569,148.9434
964,Wentworth Public School,Primary School,Coed,Wentworth,-34.1032,141.9187
965,Wentworth Falls Public School,Primary School,Coed,Wentworth Falls ,-33.7141,150.3735
966,Wentworthville Public School,Primary School,Coed,Wentworthville,-33.814,150.9686
967,Werris Creek Public School,Primary School,Coed,Werris Creek,-31.3489,150.6515
968,Westdale Public School,Primary School,Coed,Westdale ,-31.0937,150.8739
969,Weston Public School,Primary School,Coed,Weston ,-32.809,151.461
970,White Cliffs Public School,Primary School,Coed,White Cliffs ,-30.8509,143.0903
971,Whitton-Murrami Public School,Primary School,Coed,Whitton ,-34.5189,146.1812
972,Wiangaree Public School,Primary School,Coed,Wiangaree,-28.5114,152.9655
973,Wilberforce Public School,Primary School,Coed,Wilberforce ,-33.5587,150.8398
974,Wilcannia Central School,Central/Community School,Coed,Wilcannia ,-31.5585,143.3759
975,Willawarrin Public School,Primary School,Coed,Willawarrin,-30.9257,152.6255
976,Willoughby Public School,Primary School,Coed,Willoughby,-33.8022,151.2001
977,Willow Tree Public School,Primary School,Coed,Willow Tree,-31.6568,150.729
978,Athelstane Public School,Primary School,Coed,Arncliffe ,-33.9374,151.1384
979,Wilsons Creek Public School,Primary School,Coed,Mullumbimby ,-28.5708,153.4262
980,Windellama Public School,Primary School,Coed,Goulburn,-35.01,149.8335
981,Windsor Public School,Primary School,Coed,Windsor ,-33.6104,150.8164
982,Wingello Public School,Primary School,Coed,Wingello ,-34.6882,150.1535
983,Wisemans Ferry Public School,Primary School,Coed,Wisemans Ferry ,-33.386,150.9841
984,Wollar Public School,Primary School,Coed,Wollar ,-32.3565,149.9489
985,Wollongbar Public School,Primary School,Coed,Wollongbar ,-28.827,153.4201
986,Wollongong West Public School,Primary School,Coed,Wollongong ,-34.4246,150.8715
987,Wolumla Public School,Primary School,Coed,Wolumla ,-36.8327,149.8117
988,Wombat Public School,Primary School,Coed,Wombat ,-34.4266,148.2452
989,Wongarbon Public School,Primary School,Coed,Wongarbon,-32.3336,148.7591
990,Woodburn Public School,Primary School,Coed,Woodburn ,-29.0754,153.3393
991,Woodenbong Central School,Central/Community School,Coed,Woodenbong ,-28.3897,152.6102
992,Woodstock Public School,Primary School,Coed,Woodstock ,-33.7459,148.849
993,Woolbrook Public School,Primary School,Coed,Woolbrook ,-30.9702,151.3446
994,Woolgoolga Public School,Primary School,Coed,Woolgoolga ,-30.1127,153.1965
995,Borenore Public School,Primary School,Coed,Borenore,-33.251,148.9842
996,Woolomin Public School,Primary School,Coed,Woolomin ,-31.3018,151.1481
997,Woonona Public School,Primary School,Coed,Woonona ,-34.3456,150.9068
998,Wyalong Public School,Primary School,Coed,Wyalong ,-33.9239,147.2421
999,West Wyalong Public School,Primary School,Coed,West Wyalong ,-33.9185,147.2041
1000,Wyangala Dam Public School,Primary School,Coed,Wyangala,-33.967,148.9472
1001,Wyee Public School,Primary School,Coed,Wyee ,-33.1748,151.483
1002,Wyndham Public School,Primary School,Coed,Wyndham ,-36.9296,149.6466
1003,Wyong Public School,Primary School,Coed,Wyong ,-33.2719,151.4262
1004,Wyong Creek Public School,Primary School,Coed,Wyong Creek,-33.2671,151.3481
1005,Wyrallah Public School,Primary School,Coed,Wyrallah ,-28.8904,153.3057
1006,Yamba Public School,Primary School,Coed,Yamba ,-29.4395,153.3531
1007,Table Top Public School,Primary School,Coed,Table Top ,-35.9676,147.0073
1008,Yanco Public School,Primary School,Coed,Yanco ,-34.5979,146.4112
1009,Yanderra Public School,Primary School,Coed,Yanderra ,-34.3205,150.5712
1010,Yarrowitch Public School,Primary School,Coed,Yarrowitch ,-31.2506,151.9482
1011,Yass Public School,Primary School,Coed,Yass ,-34.8376,148.9069
1012,Yenda Public School,Primary School,Coed,Yenda ,-34.2524,146.1983
1013,Yeoval Central School,Central/Community School,Coed,Yeoval,-32.7544,148.6497
1014,Yerong Creek Public School,Primary School,Coed,Yerong Creek ,-35.3868,147.061
1015,Yetman Public School,Primary School,Coed,Yetman ,-28.9022,150.7763
1016,Yoogali Public School,Primary School,Coed,Yoogali ,-34.2997,146.0862
1017,Young Public School,Primary School,Coed,Young ,-34.3214,148.2902
1018,Edgeworth Public School,Primary School,Coed,Edgeworth,-32.9229,151.6204
1019,Zig Zag Public School,Primary School,Coed,Lithgow ,-33.4661,150.1828
1020,Pottsville Beach Public School,Primary School,Coed,Pottsville ,-28.3776,153.5678
1021,Rowena Public School,Primary School,Coed,Rowena ,-29.8139,148.9125
1022,Dubbo West Public School,Primary School,Coed,Dubbo ,-32.2519,148.5883
1023,Oyster Bay Public School,Primary School,Coed,Oyster Bay ,-34.0078,151.0807
1024,Louth Public School,Primary School,Coed,Louth ,-30.5358,145.1179
1025,Kemps Creek Public School,Primary School,Coed,Kemps Creek ,-33.8828,150.7903
1026,Enngonia Public School,Primary School,Coed,Enngonia ,-29.3189,145.8445
1027,Fairfield Heights Public School,Primary School,Coed,Fairfield,-33.8661,150.9403
1028,Scotts Head Public School,Primary School,Coed,Scotts Head ,-30.7499,152.9952
1029,Afterlee Public School,Primary School,Coed,Afterlee,-28.5823,152.8179
1030,Stuarts Point Public School,Primary School,Coed,Stuarts Point ,-30.8188,152.9937
1031,Sussex Inlet Public School,Primary School,Coed,Sussex Inlet,-35.1673,150.5842
1032,Cronulla South Public School,Primary School,Coed,Cronulla ,-34.0661,151.1542
1033,St Georges Basin Public School,Primary School,Coed,Basin View ,-35.0907,150.5639
1034,Warwick Farm Public School,Primary School,Coed,Warwick Farm,-33.9096,150.9294
1035,Oxley Vale Public School,Primary School,Coed,Tamworth,-31.0588,150.895
1036,Soldiers Point Public School,Primary School,Coed,Soldiers Point,-32.71,152.0654
1037,Chester Hill Public School,Primary School,Coed,Chester Hill ,-33.8856,151.0016
1038,Georges Hall Public School,Primary School,Coed,Georges Hall ,-33.9124,150.9922
1039,South Coogee Public School,Primary School,Coed,South Coogee,-33.9333,151.2541
1040,Croppa Creek Public School,Primary School,Coed,Croppa Creek ,-29.1252,150.3094
1041,Annangrove Public School,Primary School,Coed,Annangrove ,-33.6674,150.9525
1042,Woronora River Public School,Primary School,Coed,Woronora,-34.0266,151.0411
1043,Balgowlah Heights Public School,Primary School,Coed,Balgowlah ,-33.806,151.2588
1044,Goulburn West Public School,Primary School,Coed,Goulburn ,-34.7592,149.7007
1045,Riverwood Public School,Primary School,Coed,Riverwood ,-33.9472,151.0466
1046,Warragamba Public School,Primary School,Coed,Warragamba,-33.8909,150.6054
1047,Belrose Public School,Primary School,Coed,Belrose ,-33.7272,151.2166
1048,Upper Coopers Creek Public School,Primary School,Coed,Upper Coopers Creek ,-28.6071,153.4019
1049,Wiripaang Public School,Primary School,Coed,Gateshead ,-32.9842,151.6914
1050,Bundeena Public School,Primary School,Coed,Bundeena,-34.0868,151.1524
1051,Pymble Public School,Primary School,Coed,Pymble,-33.7323,151.1411
1052,Condell Park Public School,Primary School,Coed,Bankstown ,-33.9255,151.0137
1053,Avalon Public School,Primary School,Coed,Avalon Beach,-33.6394,151.3267
1054,Bald Face Public School,Primary School,Coed,Blakehurst ,-33.9968,151.1069
1055,Hamilton South Public School,Primary School,Coed,Merewether ,-32.9334,151.7535
1056,Lugarno Public School,Primary School,Coed,Lugarno ,-33.985,151.0447
1057,Oatley West Public School,Primary School,Coed,Oatley,-33.979,151.0655
1058,New Lambton South Public School,Primary School,Coed,New Lambton ,-32.9315,151.7176
1059,Chullora Public School,Primary School,Coed,Greenacre ,-33.8954,151.0602
1060,Tarrawanna Public School,Primary School,Coed,Tarrawanna ,-34.3808,150.8902
1061,Sutherland North Public School,Primary School,Coed,Sutherland ,-34.0268,151.0671
1062,Bathurst West Public School,Primary School,Coed,Bathurst ,-33.411,149.5598
1063,Gwynneville Public School,Primary School,Coed,Gwynneville ,-34.4172,150.8794
1064,Narraweena Public School,Primary School,Coed,Dee Why ,-33.7492,151.2736
1065,Jannali Public School,Primary School,Coed,Jannali,-34.0179,151.0609
1066,Ramsgate Public School,Primary School,Coed,Ramsgate ,-33.9814,151.1436
1067,Chalmers Road School,Schools for Specific Purposes,Coed,Strathfield ,-33.8796,151.0816
1068,Wahroonga Public School,Primary School,Coed,Wahroonga ,-33.7156,151.1285
1069,Parramatta East Public School,Primary School,Coed,Parramatta ,-33.8061,151.0178
1070,Melrose Park Public School,Primary School,Coed,West Ryde ,-33.8148,151.0719
1071,Bathurst South Public School,Primary School,Coed,Bathurst ,-33.433,149.5689
1072,Wallsend South Public School,Primary School,Coed,Wallsend ,-32.9201,151.6752
1073,Hazelbrook Public School,Primary School,Coed,Hazelbrook ,-33.7266,150.4594
1074,Turramurra Public School,Primary School,Coed,Turramurra ,-33.7453,151.1143
1075,Wyrallah Road Public School,Primary School,Coed,Lismore ,-28.8303,153.2933
1076,Oak Flats Public School,Primary School,Coed,Oak Flats ,-34.5626,150.8176
1077,Denistone East Public School,Primary School,Coed,Eastwood ,-33.7943,151.0966
1078,Meadowbank Public School,Primary School,Coed,Ryde ,-33.8178,151.0977
1079,Uralla Central School,Central/Community School,Coed,Uralla ,-30.6415,151.4944
1080,Towradgi Public School,Primary School,Coed,Fairy Meadow,-34.3889,150.9
1081,Lake Illawarra South Public School,Primary School,Coed,Lake Illawarra,-34.5395,150.8593
1082,Yagoona Public School,Primary School,Coed,Yagoona ,-33.9092,151.0267
1083,Wattle Grove Public School,Primary School,Coed,Wattle Grove ,-33.9587,150.9375
1084,Greenwell Point Public School,Primary School,Coed,Greenwell Point ,-34.9074,150.7304
1085,Dobroyd Point Public School,Primary School,Coed,Haberfield ,-33.8744,151.1407
1086,Kahibah Public School,Primary School,Coed,Kahibah ,-32.9649,151.7136
1087,Narwee Public School,Primary School,Coed,Narwee ,-33.9482,151.0686
1088,Muswellbrook South Public School,Primary School,Coed,Muswellbrook ,-32.2742,150.8919
1089,Corrimal East Public School,Primary School,Coed,Corrimal,-34.378,150.9065
1090,Mount St Thomas Public School,Primary School,Coed,Wollongong ,-34.4369,150.87
1091,Tamworth South Public School,Primary School,Coed,Tamworth ,-31.1051,150.9117
1092,Westmead Public School,Primary School,Coed,Westmead ,-33.8102,150.9853
1093,Mount Colah Public School,Primary School,Coed,Mount Colah ,-33.6729,151.1157
1094,McCallums Hill Public School,Primary School,Coed,Roselands,-33.9349,151.0848
1095,Cooma North Public School,Primary School,Coed,Cooma North ,-36.2179,149.1306
1096,Windale Public School,Primary School,Coed,Windale ,-32.9924,151.6783
1097,Cardiff South Public School,Primary School,Coed,Cardiff South,-32.9531,151.6652
1098,Como West Public School,Primary School,Coed,Como ,-34.0047,151.0605
1099,Hamilton North Public School,Primary School,Coed,Broadmeadow ,-32.9174,151.7342
1100,Marks Point Public School,Primary School,Coed,Marks Point ,-33.0575,151.6501
1101,Glen Alice Public School,Primary School,Coed,Glen Alice ,-33.0406,150.2147
1102,Argenton Public School,Primary School,Coed,Argenton ,-32.9385,151.6295
1103,Pagewood Public School,Primary School,Coed,Botany ,-33.9421,151.2142
1104,Narrabeen North Public School,Primary School,Coed,North Narrabeen,-33.6991,151.2981
1105,Lane Cove West Public School,Primary School,Coed,Lane Cove,-33.8099,151.152
1106,Taree West Public School,Primary School,Coed,Taree ,-31.9076,152.4445
1107,Palinyewah Public School,Primary School,Coed,Wentworth,-33.845,142.0127
1108,Grays Point Public School,Primary School,Coed,Grays Point ,-34.0587,151.0723
1109,Killara Public School,Primary School,Coed,Killara ,-33.7655,151.1484
1110,Castle Cove Public School,Primary School,Coed,Castle Cove ,-33.7834,151.202
1111,Albury North Public School,Primary School,Coed,Albury ,-36.0642,146.9324
1112,Kapooka Public School,Primary School,Coed,Kapooka ,-35.1515,147.297
1113,East Hills Public School,Primary School,Coed,Panania ,-33.958,150.992
1114,Curl Curl North Public School,Primary School,Coed,North Curl Curl ,-33.7646,151.2893
1115,Belmont North Public School,Primary School,Coed,Belmont ,-33.02,151.6713
1116,Cabramurra Public School,Primary School,Coed,Cabramurra ,-35.9316,148.379
1117,Seven Hills Public School,Primary School,Coed,Seven Hills,-33.77,150.9375
1118,Waratah West Public School,Primary School,Coed,Waratah West ,-32.898,151.7163
1119,Crown Street Public School,Primary School,Coed,Surry Hills ,-33.8823,151.2152
1120,Mount Hutton Public School,Primary School,Coed,Mount Hutton ,-32.9771,151.6686
1121,Gordon West Public School,Primary School,Coed,West Pymble,-33.7603,151.1392
1122,Beverly Hills North Public School,Primary School,Coed,Beverly Hills ,-33.9406,151.0748
1123,Finley Public School,Primary School,Coed,Finley ,-35.6394,145.575
1124,Maclean Public School,Primary School,Coed,Maclean ,-29.4572,153.2013
1125,Quirindi Public School,Primary School,Coed,Quirindi ,-31.4976,150.678
1126,Tempe Public School,Primary School,Coed,Tempe ,-33.9209,151.161
1127,Maitland Public School,Primary School,Coed,Maitland,-32.7355,151.5533
1128,Manly Village Public School,Primary School,Coed,Manly ,-33.7994,151.2876
1129,Marrickville West Public School,Primary School,Coed,Marrickville ,-33.9145,151.1451
1130,Marrickville Public School,Primary School,Coed,Marrickville ,-33.9067,151.1627
1131,Waverley Public School,Primary School,Coed,Waverley ,-33.8982,151.2515
1132,Wollongong Public School,Primary School,Coed,Wollongong,-34.4229,150.8967
1133,Beaumont Road Public School,Primary School,Coed,Killara ,-33.7743,151.1463
1134,Woolooware Public School,Primary School,Coed,Cronulla ,-34.0455,151.1462
1135,Padstow Heights Public School,Primary School,Coed,Padstow ,-33.9665,151.03
1136,Waniora Public School,Primary School,Coed,Bulli ,-34.3368,150.9191
1137,Figtree Public School,Primary School,Coed,Figtree,-34.4408,150.8544
1138,Blackalls Park Public School,Primary School,Coed,Blackalls Park ,-32.9984,151.5777
1139,Speers Point Public School,Primary School,Coed,Speers Point ,-32.9589,151.6216
1140,Collaroy Plateau Public School,Primary School,Coed,Collaroy Plateau ,-33.733,151.2934
1141,Beacon Hill Public School,Primary School,Coed,Beacon Hill ,-33.7516,151.2606
1142,Caringbah North Public School,Primary School,Coed,Caringbah ,-34.0366,151.1231
1143,Russell Vale Public School,Primary School,Coed,Russell Vale ,-34.3595,150.9068
1144,Farmborough Road Public School,Primary School,Coed,Unanderra ,-34.4603,150.8348
1145,Villawood East Public School,Primary School,Coed,Villawood ,-33.8902,150.986
1146,Bellambi Public School,Primary School,Coed,Bellambi ,-34.3712,150.9144
1147,Cabramatta West Public School,Primary School,Coed,Cabramatta ,-33.8975,150.923
1148,Chester Hill North Public School,Primary School,Coed,Chester Hill ,-33.8724,151.001
1149,Canley Heights Public School,Primary School,Coed,Canley Heights ,-33.8848,150.9226
1150,Balgowlah North Public School,Primary School,Coed,North Balgowlah,-33.7833,151.2465
1151,Gordon East Public School,Primary School,Coed,Gordon ,-33.7458,151.1562
1152,Yennora Public School,Primary School,Coed,Yennora ,-33.8668,150.971
1153,Katoomba North Public School,Primary School,Coed,Katoomba ,-33.6991,150.3151
1154,Biraban Public School,Primary School,Coed,Toronto ,-33.0084,151.5763
1155,Pendle Hill Public School,Primary School,Coed,Wentworthville,-33.8103,150.954
1156,Umina Beach Public School,Primary School,Coed,Umina Beach ,-33.5251,151.3141
1157,Fern Bay Public School,Primary School,Coed,Fern Bay ,-32.8717,151.7947
1158,Hilltop Road Public School,Primary School,Coed,Merrylands ,-33.8263,150.9733
1159,Richmond Public School,Primary School,Coed,Richmond ,-33.5989,150.7575
1160,Guildford West Public School,Primary School,Coed,Guildford West ,-33.8477,150.9665
1161,Jannali East Public School,Primary School,Coed,Jannali ,-34.0192,151.0723
1162,Warilla Public School,Primary School,Coed,Warilla ,-34.5572,150.8542
1163,Fairvale Public School,Primary School,Coed,Fairfield ,-33.8769,150.9407
1164,Lake Heights Public School,Primary School,Coed,Lake Heights,-34.4897,150.868
1165,Panania North Public School,Primary School,Coed,Panania ,-33.9445,150.9996
1166,Peakhurst West Public School,Primary School,Coed,Peakhurst ,-33.962,151.0494
1167,Chatham Public School,Primary School,Coed,Taree ,-31.8998,152.4822
1168,Mowbray Public School,Primary School,Coed,Lane Cove,-33.8039,151.1559
1169,Revesby South Public School,Primary School,Coed,Revesby ,-33.9605,151.0173
1170,Booragul Public School,Primary School,Coed,Booragul ,-32.9739,151.6115
1171,Gunnedah South Public School,Primary School,Coed,Gunnedah ,-30.992,150.2505
1172,Forestville Public School,Primary School,Coed,Forestville ,-33.7616,151.2128
1173,Glenroi Heights Public School,Primary School,Coed,Orange,-33.2972,149.1123
1174,Manly Vale Public School,Primary School,Coed,Manly Vale ,-33.7835,151.2598
1175,Coal Point Public School,Primary School,Coed,Coal Point ,-33.0408,151.6108
1176,Sylvania Heights Public School,Primary School,Coed,Sylvania,-34.0127,151.0974
1177,Griffith North Public School,Primary School,Coed,Griffith ,-34.2799,146.0479
1178,Dundas Public School,Primary School,Coed,Dundas,-33.8044,151.0364
1179,Eleebana Public School,Primary School,Coed,Eleebana ,-32.9905,151.6426
1180,Cringila Public School,Primary School,Coed,Cringila ,-34.472,150.8699
1181,Epping Heights Public School,Primary School,Coed,Epping ,-33.7627,151.0741
1182,Eastwood Heights Public School,Primary School,Coed,Eastwood,-33.7819,151.0955
1183,Lindsay Park Public School,Primary School,Coed,Wollongong ,-34.43,150.8609
1184,Mount Kuring-gai Public School,Primary School,Coed,Mount Kuring-Gai ,-33.6575,151.1356
1185,Point Clare Public School,Primary School,Coed,Point Clare ,-33.4435,151.3277
1186,Penshurst West Public School,Primary School,Coed,Mortdale ,-33.9621,151.0722
1187,Kingscliff Public School,Primary School,Coed,Kingscliff,-28.2594,153.5795
1188,Oxley Park Public School,Primary School,Coed,St Marys ,-33.7715,150.7889
1189,Rooty Hill Public School,Primary School,Coed,Rooty Hill ,-33.7693,150.8404
1190,Birrong Public School,Primary School,Coed,Birrong ,-33.8956,151.0201
1191,Leumeah Public School,Primary School,Coed,Leumeah ,-34.0494,150.8404
1192,Wattawa Heights Public School,Primary School,Coed,Bankstown ,-33.9149,151.0121
1193,Cambridge Park Public School,Primary School,Coed,Cambridge Park ,-33.747,150.7259
1194,Blacktown North Public School,Primary School,Coed,Blacktown ,-33.7588,150.9131
1195,Macquarie Fields Public School,Primary School,Coed,Macquarie Fields ,-33.9953,150.8825
1196,Villawood North Public School,Primary School,Coed,Fairfield East,-33.8771,150.9725
1197,Windsor South Public School,Primary School,Coed,South Windsor,-33.6182,150.804
1198,Matraville Soldiers Settlement Public School,Primary School,Coed,Matraville ,-33.958,151.24
1199,Oatlands Public School,Primary School,Coed,Oatlands ,-33.8001,151.0235
1200,Kirrawee Public School,Primary School,Coed,Kirrawee ,-34.0335,151.0775
1201,Illawong Public School,Primary School,Coed,Illawong ,-33.9991,151.0427
1202,Kemblawarra Public School,Primary School,Coed,Port Kembla ,-34.4893,150.8932
1203,Lilli Pilli Public School,Primary School,Coed,Lilli Pilli ,-34.0666,151.1184
1204,Lismore Heights Public School,Primary School,Coed,Lismore Heights ,-28.807,153.3006
1205,Padstow North Public School,Primary School,Coed,Padstow,-33.9453,151.0314
1206,Middleton Public School,Primary School,Coed,Parkes ,-33.1478,148.1731
1207,Hannans Road Public School,Primary School,Coed,Riverwood ,-33.9453,151.0576
1208,Mount Ousley Public School,Primary School,Coed,Fairy Meadow,-34.3989,150.8882
1209,Tuggerawong Public School,Primary School,Coed,Tuggerawong ,-33.2798,151.4856
1210,Forbes North Public School,Primary School,Coed,Forbes ,-33.3699,148.001
1211,Murwillumbah East Public School,Primary School,Coed,Murwillumbah ,-28.3209,153.4053
1212,Telopea Public School,Primary School,Coed,Telopea,-33.797,151.0436
1213,Nowra Hill Public School,Primary School,Coed,Nowra ,-34.9354,150.5662
1214,Central Mangrove Public School,Primary School,Coed,Central Mangrove,-33.2956,151.2444
1215,Tweed Heads South Public School,Primary School,Coed,Tweed Heads South ,-28.1953,153.539
1216,Deniliquin South Public School,Primary School,Coed,Deniliquin ,-35.5376,144.9558
1217,Mingoola Public School,Primary School,Coed,Mingoola,-29.0051,151.5426
1218,Blacktown West Public School,Primary School,Coed,Blacktown ,-33.7704,150.8931
1219,Warnervale Public School,Primary School,Coed,Hamlyn Terrace,-33.2518,151.4692
1220,Moree East Public School,Primary School,Coed,Moree ,-29.477,149.8402
1221,Albion Park Rail Public School,Primary School,Coed,Albion Park ,-34.5676,150.7987
1222,Miranda North Public School,Primary School,Coed,Miranda ,-34.032,151.1127
1223,Rydalmere East Public School,Primary School,Coed,Ermington ,-33.8171,151.0582
1224,Yowie Bay Public School,Primary School,Coed,Yowie Bay ,-34.0482,151.1028
1225,Ermington West Public School,Primary School,Coed,Ermington ,-33.8059,151.0584
1226,Campbelltown North Public School,Primary School,Coed,Campbelltown ,-34.0612,150.8266
1227,Queanbeyan West Public School,Primary School,Coed,Queanbeyan ,-35.3484,149.2157
1228,Heaton Public School,Primary School,Coed,Jesmond ,-32.8997,151.6951
1229,Young North Public School,Primary School,Coed,Young ,-34.311,148.3054
1230,Arcadia Vale Public School,Primary School,Coed,Arcadia Vale,-33.0602,151.582
1231,Garden Suburb Public School,Primary School,Coed,Garden Suburb ,-32.9479,151.6823
1232,Penrith South Public School,Primary School,Coed,Penrith,-33.7639,150.7006
1233,Bankstown West Public School,Primary School,Coed,Bankstown,-33.9155,151.0196
1234,Turvey Park Public School,Primary School,Coed,Wagga Wagga ,-35.1291,147.3575
1235,Erskineville Public School,Primary School,Coed,Erskineville ,-33.9009,151.1861
1236,Castlereagh Public School,Primary School,Coed,Castlereagh ,-33.667,150.676
1237,North Haven Public School,Primary School,Coed,North Haven ,-31.6338,152.8198
1238,Tower Street Public School,Primary School,Coed,Panania ,-33.9564,151.0074
1239,Edgeworth Heights Public School,Primary School,Coed,Edgeworth ,-32.9244,151.6092
1240,Yates Avenue Public School,Primary School,Coed,Dundas Valley,-33.7956,151.0584
1241,Kent Road Public School,Primary School,Coed,Eastwood ,-33.7874,151.1089
1242,Liverpool West Public School,Primary School,Coed,Liverpool ,-33.9271,150.9077
1243,Seven Hills West Public School,Primary School,Coed,Seven Hills ,-33.766,150.9216
1244,Elermore Vale Public School,Primary School,Coed,Wallsend ,-32.9156,151.6668
1245,Truscott Street Public School,Primary School,Coed,North Ryde ,-33.7941,151.1309
1246,Epping North Public School,Primary School,Coed,North Epping ,-33.7576,151.0954
1247,Marayong Public School,Primary School,Coed,Blacktown ,-33.7566,150.8953
1248,Lavington East Public School,Primary School,Coed,Lavington,-36.0393,146.9489
1249,Kooringal Public School,Primary School,Coed,Wagga Wagga ,-35.1488,147.3732
1250,Albert Park Public School,Primary School,Coed,East Lismore ,-28.8216,153.2725
1251,Berkeley West Public School,Primary School,Coed,Berkeley ,-34.4755,150.841
1252,Budgewoi Public School,Primary School,Coed,Budgewoi,-33.2257,151.5493
1253,Lennox Head Public School,Primary School,Coed,Lennox Head,-28.7944,153.5907
1254,Valentine Public School,Primary School,Coed,Valentine ,-33.0091,151.6425
1255,Black Springs Public School,Primary School,Coed,Black Springs,-33.8457,149.742
1256,Lalor Park Public School,Primary School,Coed,Lalor Park ,-33.7605,150.9312
1257,Bert Oldfield Public School,Primary School,Coed,Seven Hills,-33.7775,150.9245
1258,Blacktown South Public School,Primary School,Coed,Blacktown ,-33.7802,150.9052
1259,Charlestown East Public School,Primary School,Coed,Charlestown ,-32.9712,151.7047
1260,Warrimoo Public School,Primary School,Coed,Warrimoo ,-33.7281,150.6002
1261,Kempsey South Public School,Primary School,Coed,Kempsey ,-31.095,152.8299
1262,Blacksmiths Public School,Primary School,Coed,Blacksmiths,-33.0713,151.654
1263,Casula Public School,Primary School,Coed,Casula ,-33.9442,150.9092
1264,Elanora Heights Public School,Primary School,Coed,Elanora Heights ,-33.7037,151.2847
1265,Allambie Heights Public School,Primary School,Coed,Allambie Heights ,-33.7662,151.2492
1266,Kotara South Public School,Primary School,Coed,Kotara,-32.9465,151.6943
1267,Parkes East Public School,Primary School,Coed,Parkes ,-33.1361,148.1902
1268,St Marys North Public School,Primary School,Coed,North St Marys,-33.7562,150.7826
1269,Biddabah Public School,Primary School,Coed,Warners Bay ,-32.9661,151.6418
1270,Glendale East Public School,Primary School,Coed,Glendale ,-32.9276,151.6544
1271,Fennell Bay Public School,Primary School,Coed,Fennell Bay ,-32.9917,151.6019
1272,Temora West Public School,Primary School,Coed,Temora ,-34.4513,147.5235
1273,Mount Pritchard East Public School,Primary School,Coed,Mount Pritchard ,-33.9051,150.912
1274,Quakers Hill East Public School,Primary School,Coed,Acacia Gardens ,-33.7325,150.9144
1275,Narrandera East Infants School,Infants School,Coed,Narrandera ,-34.7503,146.5658
1276,Mount Austin Public School,Primary School,Coed,Mount Austin ,-35.1356,147.3512
1277,Banksia Road Public School,Primary School,Coed,Greenacre ,-33.9069,151.0501
1278,Gosford East Public School,Primary School,Coed,East Gosford,-33.4376,151.3489
1279,Loftus Public School,Primary School,Coed,Loftus ,-34.047,151.0489
1280,Darcy Road Public School,Primary School,Coed,Wentworthville,-33.802,150.966
1281,Tulloona Public School,Primary School,Coed,Tulloona,-28.8689,150.1013
1282,Bullarah Public School,Primary School,Coed,Bullarah,-29.4709,149.2289
1283,Laguna Street Public School,Primary School,Coed,Caringbah ,-34.0463,151.1129
1284,Morgan Street Public School,Primary School,Coed,Broken Hill ,-31.9415,141.4608
1285,Railway Town Public School,Primary School,Coed,Broken Hill ,-31.9706,141.44
